name,name_en,phone,website,email,address,city,governorate,category,subcategory,latitude,longitude,facebook,instagram,data_quality,verified,source
مارکیتی قەراجی,Qaraji market,+9647504775465,,,شەقامی مەخموور,أربيل,Erbil,Shop/Retail,shop,36.1212188,43.96933,,,real,false,osm
موبایلی ئەیمەن,Ayman mobile,+9647507858043,,,شەقامی مەخموور,أربيل,Erbil,Shop/Retail,shop,36.1216648,43.9693814,,,real,false,osm
مطلیب مارکیت,Mutalib market,+9647504831950,,,,أربيل,Erbil,Shop/Retail,shop,36.1281472,43.9644373,,,real,false,osm
ماركێتى دووبرا,Market Dubra,+9647504917843,https://www.facebook.com/profile.php?id=100026143726868,,"07504917843, شةقامى سةركاريز",أربيل,Erbil,Shop/Retail,shop,36.1280402,43.9637309,https://www.facebook.com/profile.php?id=100026143726868,,real,false,osm
مارکێتی هەڵمەت 2,,+9647507598090,,,سەرکارێز,Erbil,Erbil,Shop/Retail,shop,36.1284418,43.9630447,,,real,false,osm
مارکیتی فەرهەنگ,Farhang market,+9647507043700,,,,أربيل,Erbil,Shop/Retail,shop,36.1276633,43.9702576,,,real,false,osm
تیم مارت,Teammart,+9647517423678,https://team-mart.com/,info@team-mart.com,شارۆچکەی ناوەندیی هەولێر,هەولێر,Erbil,Shop/Retail,shop,36.125772,44.0097125,,,real,false,osm
مارکێتی ئێف کەی,FK market,+9647501737550,,,,هەولێر,Erbil,Shop/Retail,shop,36.121159,44.0191206,,,real,false,osm
Market Lyhat,,+9647501077628,https://www.facebook.com/4AHK4,,"rozhbayani st, قضاء أربيل",أربيل,Erbil,Shop/Retail,shop,36.1840292,43.9590598,,,real,false,osm
تیم مارت,Teammart,+9647517411846,https://team-mart.com/,info@team-mart.com,شارۆچکەی ناوەندیی هەولێر,هەولێر,Erbil,Shop/Retail,shop,36.1245562,44.0226524,,,real,false,osm
S.H Mobile,,+9647507283373,,,,هەولێر,Erbil,Shop/Retail,shop,36.1244954,44.021915,,,real,false,osm
تیم مارت,Teammart,+9647517411847,https://team-mart.com/,info@team-mart.com,شارۆچکەی ناوەندیی هەولێر,هەولێر,Erbil,Shop/Retail,shop,36.1272465,44.0171227,,,real,false,osm
تيم مارت,TEAMMART,+9647517411849,https://team-mart.com/,info@team-mart.com,"شەقامی پیرباڵ مەحمود, شارۆچکەی ناوەندیی هەولێر",هەولێر,Erbil,Shop/Retail,shop,36.1380464,44.016045,,,real,false,osm
مارکێتی جیهان,Jihan market,+9647501737550,,,شارۆچکەی ناوەندیی هەولێر,هەولێر,Erbil,Shop/Retail,shop,36.1377181,44.0166665,,,real,false,osm
مۆبایلی ئیسلام فۆن,,+9647503446261,,muhammedabdulqadir8@gmail.com,"28, شەقامی ڕۆژبەیانی",هەولێر,Erbil,Shop/Retail,shop,36.1890996,43.9586876,,,real,false,osm
هيوا فؤن بؤ خزمه ت گوزاري موبايل,HiwaPhone center for Mobile repairing,+9647508350750,,,,Erbil,Erbil,Shop/Retail,shop,36.1731648,43.9707963,,,real,false,osm
رةوةند2,,,,,,Erbil,Erbil,Shop/Retail,shop,36.1879241,43.9576998,,,partial,false,osm
تیم مارت,TEAMMART,+9647517411845,https://team-mart.com/,info@team-mart.com,شارۆچکەی ناوەندیی هەولێر,هەولێر,Erbil,Shop/Retail,shop,36.1281559,44.0333307,,,real,false,osm
ماركيتى باران,Market Baran,+9647504857679,,Hamabaiz20@gmail.com,شەقامی عەبدوڵڵا حەداد,Erbil,Erbil,Shop/Retail,shop,36.1574421,43.9728435,,,real,false,osm
Ismail dukandar,,+9647511077628,,ammar.habeeb2015@gmail.com,شەقامی پێشەوا قازی  ١٠٠م,Erbil,Erbil,Shop/Retail,shop,36.1613923,43.9684334,,,real,false,osm
مارکێتی ڕەوا,Rawa Market,+9647504908500,,,"306-, قضاء أربيل",أربيل,Erbil,Shop/Retail,shop,36.1566598,43.9802931,,,real,false,osm
Akram Phone,,+9647504820212,https://www.instagram.com/akramphone12,,"119, شەقامی موحەمەد عارف",أربيل,Erbil,Shop/Retail,shop,36.1536189,43.9768047,,,real,false,osm
مام سعدالله,Mam saadulla,+9647504011828,,,207-238,Erbil,Erbil,Shop/Retail,shop,36.1621987,43.9777406,,,real,false,osm
پێشانگای توڕه ق بۆ کاره باییات,electronic shop turaq,+9647504566185,,,قضاء أربيل,أربيل,Erbil,Shop/Retail,shop,36.1701114,43.9364246,,,real,false,osm
شركة SAS,Company SAS,+9647503023333,,,"ڕێگای هەولێر - موسڵ, قضاء أربيل",أربيل,Erbil,Shop/Retail,shop,36.1768095,43.9412901,,,real,false,osm
شركة smrs,Company smrs,+9647503023333,,,"ڕێگای هەولێر - موسڵ, قضاء أربيل",أربيل,Erbil,Shop/Retail,shop,36.1768215,43.9413,,,real,false,osm
موبايل فاضل,Fazil Mobile مۆبایلی فاضل,+9647508185668,http://www.facebook.com/fazilmobile,mobfazil@gmail.com,"207, شەقامی گەرەکی کوردستان",Erbil,Erbil,Shop/Retail,shop,36.1660809,43.9817162,,,real,false,osm
ئەلەند فۆن,Aland Phone,+9647504562785,,anasbraimahmad@gmail.com,kurdistan,Erbil,Erbil,Shop/Retail,shop,36.1672054,43.9837247,,,real,false,osm
ANAS MOBILE,,+9647502212012,,,erbil,erbil,Erbil,Shop/Retail,shop,36.1672128,43.9837257,,,real,false,osm
شوێنی سیدرە بۆ مۆبایل,,+9647504862233,,,قضاء أربيل,أربيل,Erbil,Shop/Retail,shop,36.1755729,43.9762754,,,real,false,osm
مۆبایلی ئاڵا,,+9647504510243,,,قضاء أربيل,أربيل,Erbil,Shop/Retail,shop,36.1771609,43.9752201,,,real,false,osm
زيپ بؤ كؤميوتةر ومؤبايل,Zip for Computer & Mobile,+9647504935612,,,,Erbil,Erbil,Shop/Retail,shop,36.175572,43.9864072,,,real,false,osm
Electronic company,HG POWER,+9647507587799,,,,Erbil,Erbil,Shop/Retail,shop,36.1627032,43.9943149,,,real,false,osm
HAWKAR GROUP,,+9647507587799,,hawkar.group.co@gmail.com,"Kuran Maghmur street , Irbil ,iraq, قضاء أربيل",أربيل,Erbil,Shop/Retail,shop,36.1627337,43.9943279,,,real,false,osm
تیم مارت,TEAMMART,+9647517411850,https://team-mart.com/,info@team-mart.com,"شەقامی پیرباڵ مەحمود, شارۆچکەی ناوەندیی هەولێر",هەولێر,Erbil,Shop/Retail,shop,36.1540556,44.0133228,,,real,false,osm
کارەباچی ئەحمەد,Ahmad Electronics,+9647513591719,,,"301-103, قضاء أربيل",أربيل,Erbil,Shop/Retail,shop,36.1548051,44.0131055,,,real,false,osm
کارەباچی ئەحمەد,Karabachy Ahmad,+9647513591719,,,"301-103, قضاء أربيل",أربيل,Erbil,Shop/Retail,shop,36.1548212,44.013219,,,real,false,osm
Zhyar market,,+9647501330601,matinhemn95@gmail.com,,"201, 201-167, قضاء أربيل",أربيل,Erbil,Shop/Retail,shop,36.1628305,44.0050845,,,real,false,osm
مارکێتی ئاهین,Ahin Market,+9647515188683,,hawtaa36@gmail.com,"شەقامی پیرباڵ مەحمود, شارۆچکەی ناوەندی هەولێر",هەولێر,Erbil,Shop/Retail,shop,36.1413168,44.015509,,,real,false,osm
مارکێتی شاخی,Shakhi Market,+9647504042239,,,"شەقامی پیرباڵ مەحمود, قضاء أربيل",أربيل,Erbil,Shop/Retail,shop,36.147708,44.0147684,,,real,false,osm
Ali Network,,+9647504336180,https://bio.link/alinetwork,,,Erbil,Erbil,Shop/Retail,shop,36.1521292,44.0140478,,,real,false,osm
فاريا بازار,Varya bazar,+9647514941463,,,,Erbil,Erbil,Shop/Retail,shop,36.1641932,44.0188254,,,real,false,osm
پێشانگای ئاسودە,Aswda shop,+9647504534786,,esmailsahdulla@yahoo.com,smko mantk(mala 3uzer),Erbil,Erbil,Shop/Retail,shop,36.1601367,44.0240999,,,real,false,osm
مۆبایلی ئاسۆ,Aso phone,+9647504808800,,,smko mantk(mala 3uzer),Erbil,Erbil,Shop/Retail,shop,36.1601125,44.0241294,,,real,false,osm
ڤانا بۆ تەکنەلۆجیای سەردەم,Vana for new technology,+9647504650722,,twana.esri@gmail.com,"شەقامی جەمال حەیدەری, قضاء أربيل",أربيل,Erbil,Shop/Retail,shop,36.1653236,44.0230567,,,real,false,osm
زانا,Zana,+9647509153553,,,,Erbil,Erbil,Shop/Retail,shop,36.1652201,44.0258435,,,real,false,osm
جفین کەرکوک,jfin kirkuk,,,,07501737550,Erbil,Erbil,Shop/Retail,shop,36.1046527,44.0209819,,,partial,false,osm
ئؤلينت,Owlet,+9647514200817,,,شەقامی جەمال حەیدەری,Erbil,Erbil,Shop/Retail,shop,36.1651376,44.021113,,,real,false,osm
البان حاجی علی,Haji ali,+9647507266362,,Yusfa886@gmail.com,شەقامی ڕووناکی,Erbil,Erbil,Shop/Retail,shop,36.1651069,44.0282187,,,real,false,osm
دیار ئۆیل,Diyar Oil,+9647504462876,,dlear.hamad@gmail.com,,Erbil,Erbil,Shop/Retail,shop,36.1618616,44.0312261,,,real,false,osm
سوپەرماركێتی پەیام,Payam Market,+9647504367295,,,,Erbil,Erbil,Shop/Retail,shop,36.1689758,43.9996569,,,real,false,osm
ماركيتى سردار,,+9647504212131,,,Newroz Road,Erbil,Erbil,Shop/Retail,shop,36.1780112,43.9895007,,,real,false,osm
مارکێتی زانا,zana market,+9647507056260,,,"205-10, قضاء أربيل",أربيل,Erbil,Shop/Retail,shop,36.1751667,43.995112,,,real,false,osm
مارکت رسول,market Rasul,+9647516800708,http://www.rasulkarem.com,,"2021, Makhmoor",Erbil,Erbil,Shop/Retail,shop,36.1731053,44.000561,,,real,false,osm
ستي ٢,city 2,+9647504496289,,,قضاء أربيل,أربيل,Erbil,Shop/Retail,shop,36.1684891,44.0070405,,,real,false,osm
Mr Classic,,+9647503900545,https://mrclassic.shop/,,"G27, تابلۆ مۆڵ - نهۆمی دووەم",هەولێر,Erbil,Shop/Retail,shop,36.1714138,44.0131376,,,real,false,osm
ماڵی بەزاز,Bazzaz Home,+9647505496400,,,"62, شەقامی شارەوانی, قضاء أربيل",أربيل,Erbil,Shop/Retail,shop,36.1774114,44.012559,,,real,false,osm
Shushawaty Nazanin,,+9647511247434,,,,Erbil,Erbil,Shop/Retail,shop,36.1748623,44.0582145,,,real,false,osm
مخللات نادر,turshyati nadr,+9647502484959,https://www.facebook.com/%D8%AA%D8%B1%D8%B4%D9%8A%D8%A7%D8%AA%D9%8A-%D9%86%D8%A7%D8%AF%D8%B1-1469696343247581/,,"شەقامی منارە, قضاء أربيل",أربيل,Erbil,Shop/Retail,shop,36.1875396,43.9989008,,,real,false,osm
گافيار,Iraqi Caviar Expertise Shop,+9647903378923,,,قضاء أربيل,أربيل,Erbil,Shop/Retail,shop,36.1848804,44.0125687,,,real,false,osm
جیهانی کامێرا,Camera World Co.,+9647504450343,https://cameraworldco.com/,support@cameraworldco.com,"شەقامی سوڵتان موزەفەر, قضاء أربيل",أربيل,Erbil,Shop/Retail,shop,36.191116,44.004115,,,real,false,osm
وەن پلەس,,+9647507377500,https://www.facebook.com/oneplus.iraq/,,"شەقامی سوڵتان موزەفەر, قضاء أربيل",أربيل,Erbil,Shop/Retail,shop,36.1886769,44.0030454,,,real,false,osm
کیبار,Kibar,+9647508759594,,nikolai.cruz4523@hotmail.com,"401, 105-22",Erbil,Erbil,Shop/Retail,shop,36.1899613,44.0070945,,,real,false,osm
مكتب مهندس مقداد,MiQDAD COMPUTERs,+9647507212012,http://Www.miqdadcomputers.com,salihmiqdad@miqdadcomputers.com,"شەقامی سوڵتان موزەفەر, قضاء أربيل",أربيل,Erbil,Shop/Retail,shop,36.1903741,44.0040607,,,real,false,osm
اسيا فاشيون,ibo fashion,+9647504481744,,,"327, شیخ جولي, قضاء أربيل",أربيل,Erbil,Shop/Retail,shop,36.1867632,44.0113546,,,real,false,osm
للعدد اليدوية ومواد الخراطة(Shukrallah Tools,,+9647504818228,,azadbrk@yahoo.com,"شەقامی قەڵات, قضاء أربيل",أربيل,Erbil,Shop/Retail,shop,36.1898623,44.0117933,,,real,false,osm
مارکێتی مام سالار,Mam Salar supermarket,+9647504365264,,,,Erbil,Erbil,Shop/Retail,shop,36.1488967,44.0710251,,,real,false,osm
zayuna,CMC,+9647507388888,,,"شەقامی شێخی چۆلی, قضاء أربيل",أربيل,Erbil,Shop/Retail,shop,36.1876565,44.0078741,,,real,false,osm
ھندرین بۆ سیستەمی دەنگ,HNDREN SHOP FOR SOUND SYSTEM,+9647504476993,,Muminsalaiy@gmail.com,"شەقامی شارەوانی, قضاء أربيل",أربيل,Erbil,Shop/Retail,shop,36.1874189,44.0108795,,,real,false,osm
اكسبريس للموبالات,EXPRESS 4 MOBILE,+9647705299991,,experss4mobile@gmail.com,"4, شارع تعجیل, قضاء أربيل",أربيل,Erbil,Shop/Retail,shop,36.1865664,44.0085124,,,real,false,osm
فيصل 2,Faysal 2,+9647504754272,https://www.gamestop.com/,nzarf2@gmail.com,"07504754272, شەقامی شارەوانی, قضاء أربيل",أربيل,Erbil,Shop/Retail,shop,36.1863504,44.0112447,,,real,false,osm
Aren phone,,+9647504901554,,,"شەقامی تەعجیل, قضاء أربيل",أربيل,Erbil,Shop/Retail,shop,36.1866758,44.0084343,,,real,false,osm
Shukrallah Toolsلبيع مواد الخراطة وعدد اليدوية,,+9647504818228,http://azadbrk@yahoo.com,,"Qalat Street, قضاء أربيل",أربيل,Erbil,Shop/Retail,shop,36.1898642,44.0117788,,,real,false,osm
مركز صيانة اجهزة الكترونية,Maher Phone Care Centre,+9647511879629,,,"تەعجیل, قضاء أربيل",أربيل,Erbil,Shop/Retail,shop,36.1861723,44.0085948,,,real,false,osm
بەهاراتی کەندێناوە,Kandinawa spicy,+9647504472695,,,"شەقامی قەڵات, قضاء أربيل",أربيل,Erbil,Shop/Retail,shop,36.1886771,44.0096754,,,real,false,osm
محل مام سعدي,Mam saadi,+9647504038127,,,شەقامی قەڵات,Erbil,Erbil,Shop/Retail,shop,36.1918276,44.0121075,,,real,false,osm
ماس مۆدە,,+9647504531319,,,"شەقامی شێخی چۆلی, قضاء أربيل",أربيل,Erbil,Shop/Retail,shop,36.1874539,44.0098487,,,real,false,osm
معرض ارام,Aram shoping,+9647504614108,,,,Erbil,Erbil,Shop/Retail,shop,36.1897612,44.0109542,,,real,false,osm
Sedra Vip,,+9647504240003,https://www.instagram.com/sedra_vip_fashion,,"شەقامی کەرکووک, قضاء أربيل",أربيل,Erbil,Shop/Retail,shop,36.1708808,44.0140817,,,real,false,osm
مۆبایلی فەیسبووک,Facebook Mobile,+9647504747464,,abdbotan@gamil.com,"شەقامی ئیسکان, قضاء أربيل",أربيل,Erbil,Shop/Retail,shop,36.1783357,44.0173978,,,real,false,osm
امباير فون ١,Empire Phone 1,+9647505022700,https://m.facebook.com/Empire.Phone.Co/,,"شەقامی ئیسکان, قضاء أربيل",أربيل,Erbil,Shop/Retail,shop,36.178699,44.0169628,,,real,false,osm
امباير فون ٣,Empire Phone 3,+9647505022700,https://m.facebook.com/Empire.Phone.Co/,,"شەقامی ئیسکان, قضاء أربيل",أربيل,Erbil,Shop/Retail,shop,36.1791238,44.0167305,,,real,false,osm
امباير فون ٢,Empire Phone 2,+9647505022700,https://m.facebook.com/Empire.Phone.Co/,,"شەقامی ئیسکان, قضاء أربيل",أربيل,Erbil,Shop/Retail,shop,36.1779207,44.0178706,,,real,false,osm
فاست پەی و فاست تیڤی,Fastpay & FastTV,+9647517417148,https://fast-pay.cash/,,"شەقامی کوردستان, قضاء أربيل",أربيل,Erbil,Shop/Retail,shop,36.1758524,44.0182501,,,real,false,osm
Luxury Abayat,Luxury Abayat,+9647514419190,,,"شەقامی کوردستان, قضاء أربيل",أربيل,Erbil,Shop/Retail,shop,36.175731,44.0163025,,https://www.instagram.com/luxury.abayat/,real,false,osm
سوبر ماركت سامان,,+9647511320633,,,,Erbil,Erbil,Shop/Retail,shop,36.1824262,44.0463862,,,real,false,osm
سيزن ٤ فاشيون,Seasons 4 fashion,+9647504493887,https://seasons-4-fashion.business.site/?_target?m=true,kosarfaris13@gmail.com,"شەقامی ئیسکان, قضاء أربيل",أربيل,Erbil,Shop/Retail,shop,36.1790571,44.0166753,,,real,false,osm
معرض هواوي - العالمية للتكنولوجيا,Huawei Global showroom Erbil,+9647716073866,https://consumer.huawei.com/,,شەقامی ڕووناکی,Erbil,Erbil,Shop/Retail,shop,36.17329,44.0218907,,,real,false,osm
gorenjo,,+9647504456317,http://nesprsso.krd,sherwnco@yahoo.com,"338/39, 100 M Road",Erbil,Erbil,Shop/Retail,shop,36.1683865,44.0372603,,,real,false,osm
كومپانیای شیروان - جورینجو,Sherwan co - gorenje,+9647504456317,http://nespresso.krd,sherwnco@yahoo.com,100 M Road,Erbil,Erbil,Shop/Retail,shop,36.168187,44.0371516,,,real,false,osm
معرض کامران,Kamaran Show,+9647506577000,http://www.kamaranco.com,info@kamaranco.com,"شەقامی پێشەوا قازی, قضاء أربيل",أربيل,Erbil,Shop/Retail,shop,36.1726354,44.038464,,,real,false,osm
Oleanda Lingerie,,+9647504521195,,nabilxayat1978@gmail.com,قضاء أربيل,أربيل,Erbil,Shop/Retail,shop,36.175746,44.0366568,,,real,false,osm
مواد السلامة,Whr,+9647504623070,,,"4668, شەقامی شێخەڵڵا",Erbil,Erbil,Shop/Retail,shop,36.1901459,44.0147362,,,real,false,osm
پێشانگای وەستا قاسم بۆ کەلوپەلی کارەبایات,,+9647504533653,,,,Erbil,Erbil,Shop/Retail,shop,36.1921714,44.0154406,,,real,false,osm
فرۆشتگای بەختیار,Bakhtyar shop,+9647504126131,,,قضاء أربيل,أربيل,Erbil,Shop/Retail,shop,36.1870161,44.0174375,,,real,false,osm
مارکێتی لەیلان,LELAN Market,+9647504638964,,,قضاء أربيل,أربيل,Erbil,Shop/Retail,shop,36.1898643,44.0192542,,,real,false,osm
JEHANY MOBILE,,+9647501811111,,,,Erbil,Erbil,Shop/Retail,shop,36.2027425,44.0185202,,,real,false,osm
بد,Badraden Electronics,+9647504478155,,,Mustafa Uzeri Street,Erbil,Erbil,Shop/Retail,shop,36.1897289,44.0148955,,,real,false,osm
Jihane Chezh (جیهانی چێژ),Jihane Chezh (جیهانی چێژ),+9647504287125,,,شەقامی شێخەڵڵا,Erbil,Erbil,Shop/Retail,shop,36.1879497,44.014674,,,real,false,osm
بزنس کلاس ٢,Business Class 2,+9647504907443,,,"شەقامی کوردستان, قضاء أربيل",أربيل,Erbil,Shop/Retail,shop,36.1907487,44.0269427,,,real,false,osm
كشتيوان,kashtiwan,+9647504456851,,,"شەقامی 60 مەتری, قضاء أربيل",أربيل,Erbil,Shop/Retail,shop,36.1865535,44.02644,,,real,false,osm
الثقة,ALTHIQA,+9647508318086,,,هەولێر ـ گەڕەکی سێتاقان شەقامی فافۆن فرۆشان,Erbil,Erbil,Shop/Retail,shop,36.1877802,44.0223679,,,real,false,osm
مركز سلطان أربيل,Erbil Sultan Center,+9647503495821,,,قضاء أربيل,أربيل,Erbil,Shop/Retail,shop,36.1864189,44.0267663,,,real,false,osm
بوتيك نعوش بادارة نسائية فقط,,+9647510990713,https://m.facebook.com/botek.naosh?tsid=0.29755299921519685&source=result,,قضاء أربيل,أربيل,Erbil,Shop/Retail,shop,36.1833457,44.0371896,,,real,false,osm
كلای ماكس,climax,+9647504651395,http://climax.erbil@gmail.com,,"طريق أربيل-كوي سنجق, قضاء أربيل",أربيل,Erbil,Shop/Retail,shop,36.191357,44.0273616,,,real,false,osm
رێز مۆبایل,Rezmobile,+9647504488404,http://Rezmobile@gmail.com,nabaz4488404@gmail.com,"333, شەقامی کۆیە, قضاء أربيل",أربيل,Erbil,Shop/Retail,shop,36.1896164,44.0281148,,,real,false,osm
المهندس محمد,Engineer Mohammed,+9647504431046,,,"20 bakhtiyari, قضاء أربيل",أربيل,Erbil,Shop/Retail,shop,36.2045255,43.9908336,,,real,false,osm
الملكة ميريان,Queen Miryan,+9647719494805,https://www.instagram.com/miryan.company?igsh=M2Y1ejY3MzJ5OWZp,Miryanqueen24@gmail.com,"32, جووت سایدی ٣٢ پارک",Erbil,Erbil,Shop/Retail,shop,36.1956003,43.9564804,,,real,false,osm
نووسینگەی خانوبەرەی باغی شەقڵاوە,Baghy shaqlawa Realestate,+9647502389202,https://baghyshaqlawa.net/,,"41, قضاء أربيل",أربيل,Erbil,Shop/Retail,shop,36.1960774,43.9665993,,,real,false,osm
sanvito Classic,,+9647503092500,,,"Vital Village Rd, Erbil, Erbil Governorate","Erbil, Erbil Governorate;أربيل",Erbil,Shop/Retail,shop,36.1940508,43.9669487,,,real,false,osm
Eleven Brands,,+9647507116868,https://snapchat.com/add/eleven_brands,,"Empire world, Diamond, قضاء أربيل",أربيل,Erbil,Shop/Retail,shop,36.2008893,43.9661474,,,real,false,osm
ئم ئم بازار,MM Bazar,+9647502241122,http://www.mainmindco.com,,"dream city, قضاء أربيل",أربيل,Erbil,Shop/Retail,shop,36.2084751,43.974201,,,real,false,osm
سوپەرمارکێتی ڤالێی موون,valley moon supermarket,+9647509255588,https://m.facebook.com/valleymoon.market/,,"جاده‌ی هاشم عبدالله‌ 216-47, قضاء أربيل",أربيل,Erbil,Shop/Retail,shop,36.2107481,43.9781164,,,real,false,osm
WOW tech,واو تيك,+9647502224122,https://www.facebook.com/wow.tech.co/,wow.tech@yahoo.com,"F32, شەقامی ڕەمزی نافع, قضاء أربيل",أربيل,Erbil,Shop/Retail,shop,36.2088884,43.982286,,,real,false,osm
bugatti,,+9647502312121,,,"F12, شەقامی ڕەمزی نافع, قضاء أربيل",أربيل,Erbil,Shop/Retail,shop,36.2083953,43.9834329,,,real,false,osm
سەنتەری ئەستێرە,Astera Center,+9647504795133,,hamidmobile28@gmail.com,"100, شەقامی دەرسیم",Erbil,Erbil,Shop/Retail,shop,36.1747156,44.0433629,,,real,false,osm
Serpil Vip,,+9647504240003,https://www.instagram.com/serpil__fashion_vip,,"شەقامی سامی شۆڕش, قضاء أربيل",أربيل,Erbil,Shop/Retail,shop,36.2014498,43.9937195,,,real,false,osm
SANVITO,,+9647503092500,,,"45, شەقامی سامی شۆڕش",أربيل,Erbil,Shop/Retail,shop,36.2043807,43.9893483,,,real,false,osm
زعفران,Zafaran,+9647502207000,https://www.goldenlivingco.com/zaafaran,zaafaran@goldenlivingco.com,"#11 Zaafaran, Ankawa Two-way Road, قضاء أربيل",أربيل,Erbil,Shop/Retail,shop,36.2037012,44.0001303,,,real,false,osm
Chawe pasawan,,+9647504511281,http://chawepasawan.wix.com/cctv,photon2ray@gmail.com,"07505156040, Sultan Muthafar, قضاء أربيل",أربيل,Erbil,Shop/Retail,shop,36.1932226,44.0057038,,,real,false,osm
پێشانگای قەرەچوغ,,+9647503832230,,,"شەقامی کوردستان, قضاء أربيل",أربيل,Erbil,Shop/Retail,shop,36.2030222,44.0046283,,,real,false,osm
مارکێتی دڵدار,Dldar Market,+9647504549697,,,شەقامی زراریان,Erbil,Erbil,Shop/Retail,shop,36.2014416,44.0078296,,,real,false,osm
TWENTYONE 21,,+9647509682121,https://instagram.com/twentyonelegit,twentyonelegit@gmail.com,"214-184, قضاء أربيل",أربيل,Erbil,Shop/Retail,shop,36.210724,43.9924845,,twentyonelegit,real,false,osm
zingal riche,,+9647502254001,,,"Dkrot muhammad sherko st., قضاء أربيل",أربيل,Erbil,Shop/Retail,shop,36.2097804,43.9896117,,,real,false,osm
iCenter,iCenter,+9647508942096,http://www.nciraq.com,info@nciraq.com,قضاء أربيل,أربيل,Erbil,Shop/Retail,shop,36.2081599,43.9983237,,,real,false,osm
DA Class,,+9647503521872,https://instagram.com/da.class,da.class2002@gmail.com,"26, شەقامی شۆڕش",Erbil,Erbil,Shop/Retail,shop,36.2034617,44.0225761,,,real,false,osm
M Center VIP,,+9647509900505,http://www.mcentervip.com,Mcentervipiraq@gmail.com,"20, 20M Street, قضاء أربيل",أربيل,Erbil,Shop/Retail,shop,36.2061877,43.9957548,,,real,false,osm
lokan collection,,+9647500040004,,,قضاء أربيل,أربيل,Erbil,Shop/Retail,shop,36.2076974,43.9982393,,,real,false,osm
One Center,,+9647508838686,,One-center@outlook.com,20M Street,Erbil,Erbil,Shop/Retail,shop,36.2062352,43.9957262,,,real,false,osm
چۆپی دیزاین,,+9647500708090,,,قضاء أربيل,أربيل,Erbil,Shop/Retail,shop,36.2155073,43.9879705,,,real,false,osm
شوێنی رزگار,Rzgar shaw,+9647503333435,,brwrya@gmail.com,"219-47, قضاء أربيل",أربيل,Erbil,Shop/Retail,shop,36.2138022,44.013248,,,real,false,osm
مهندس بەختیار,,+9647505637000,,,"60, 60m, قضاء أربيل",أربيل,Erbil,Shop/Retail,shop,36.1958857,44.0242438,,,real,false,osm
ورق الجدران الماني(1)(Tawer Company Wall paper),,+9647504820123,http://www.tawer.co,Rekar@tawer.co,"60 Meter road, قضاء أربيل",أربيل,Erbil,Shop/Retail,shop,36.2033432,44.0145367,,,real,false,osm
market azhy,,+9647504820123,http://www.tawer.co,,"60 Meter road, قضاء أربيل",أربيل,Erbil,Shop/Retail,shop,36.2033099,44.014605,,,real,false,osm
ميلانو فاشن,Milano Fashion Erbil,+9647804455666,http://www.milanofashion.krd,info@milanofashion.krs,"شۆرش، رۆیال مۆڵ نھۆمی دووەم, قضاء أربيل",أربيل,Erbil,Shop/Retail,shop,36.2016073,44.0202664,,,real,false,osm
ديكو لايت,decolight,+9647504544631,,,"جادەی سورچیان, قضاء أربيل",أربيل,Erbil,Shop/Retail,shop,36.2029423,44.0160063,,,real,false,osm
فۆرشگای زەمین,ZAMIN market,+9647507352122,https://zamin.com/,zamen.wshyar1@gmail.com,"22, شەقامی کۆیە, قضاء أربيل",أربيل,Erbil,Shop/Retail,shop,36.1924397,44.0309564,,,real,false,osm
مارکێتی ئەمین,Amin market,+9647504760977,,,"شەقامی نافع یونس, قضاء أربيل",أربيل,Erbil,Shop/Retail,shop,36.1967987,44.0362163,,,real,false,osm
Faia Moda - فایە مۆدە,,+9647507383340,,,شەقامی برایەتی,Erbil,Erbil,Shop/Retail,shop,36.2007601,44.0303013,,,real,false,osm
ڕامیار,Ramyar,+9647504785482,,lawandhamid94@gmail.com,"0750 4785482, brayati 224. Alley 183",Erbil,Erbil,Shop/Retail,shop,36.2005067,44.0401211,,,real,false,osm
JUDIMODA,,+9647515559911,,,"SHORSH, HADID W KHASHAB STREET",ERBIL,Erbil,Shop/Retail,shop,36.2088714,44.0235219,,,real,false,osm
زمين فون,Zamin Phone,+9647504970077,,,1,Erbil,Erbil,Shop/Retail,shop,36.2090183,44.0365733,,,real,false,osm
زەمین فۆن,zamin phone,+9647504970077,,,فلکة حي شرطة,Erbil,Erbil,Shop/Retail,shop,36.209126,44.0364428,,,real,false,osm
Bazargay Shorsh,Shoresh supermarket,+9647504454988,http://www.shorshmarket.com,,"1/5, Shaqlawa Road, قضاء أربيل",أربيل,Erbil,Shop/Retail,shop,36.2134495,44.0309776,,,real,false,osm
موبايل وليد,Wallid Mobile cellphones,+9647812395665,,wallid1992@gmail.com,"4400, Dar u Asn Street, قضاء أربيل",أربيل,Erbil,Shop/Retail,shop,36.2144114,44.0275637,,,real,false,osm
أزياء ابو الشوق,Abu Alshok Fashion,+9647700302000,,,"Yazdandokht Street, قضاء أربيل",أربيل,Erbil,Shop/Retail,shop,36.2250308,43.9955779,,,real,false,osm
S BRAND,,+9647704016404,https://www.facebook.com/sbrand0/,,"C 13, Ainkawa, قضاء أربيل",أربيل,Erbil,Shop/Retail,shop,36.2413263,43.9896286,,,real,false,osm
Berlin Market Ankawa,,+9647500253545,,,شەقامی ١٢٠ مەتری,Erbil,Erbil,Shop/Retail,shop,36.2380461,44.0094863,,,real,false,osm
شوێنی هاشم,Hashm karabayat,+9647504550492,,,,Erbil,Erbil,Shop/Retail,shop,36.2190155,44.0303901,,,real,false,osm
کۆمپیوتەرو مۆبایلی ئیدریس,Edrees For Computer & Mobile,+9647504528384,https://www.facebook.com/edrees4computer,edrees4mobile@gmail.com,"128, Gulan",Erbil,Erbil,Shop/Retail,shop,36.220455,44.0294431,,,real,false,osm
هاورى بو موبايل و كومپيوتةر,Hawre 4 Mobil & Computer,+9647504223890,,4myshoup@gmail.com,شەقامی کویستان پشت نەخۆشخانەی لەدایکبوون,Erbil,Erbil,Shop/Retail,shop,36.2191568,44.0304821,,,real,false,osm
کۆمپانیای عیراقی نوێ,iraq modern company,+9647504539679,https://abudawood.com/,waaderfan@almarmouka.com,"ڕێگای گەزنە, قضاء أربيل",أربيل,Erbil,Shop/Retail,shop,36.2575368,43.9796786,,,real,false,osm
ژیا مارکێت,ژیا مارکێت,+9647504510672,,,شارۆچکەی ناوەندیی هەولێر,هەولێر,Erbil,Shop/Retail,shop,36.1210169,44.0521959,,,real,false,osm
مارکێتی سەدیق و ئاسۆ,sdiq market,+9647504555606,,,شارۆچکەی ناوەندیی هەولێر,هەولێر,Erbil,Shop/Retail,shop,36.1218996,44.0523732,,,real,false,osm
فرۆشگای ئەلەند,,+9647504467182,,,"جووت سایدی دارەتوو, شارۆچکەی ناوەندیی هەولێر",هەولێر,Erbil,Shop/Retail,shop,36.1261802,44.0476653,,,real,false,osm
محمد خورانی,Muhamad xorany,+9647504735252,,,شەقامی بنەسڵاوە,Erbil,Erbil,Shop/Retail,shop,36.1605142,44.0633865,,,real,false,osm
فرۆشگایی ئەردەلان بۆ مۆبایل,,+9647504510674,,ardelanyunis1@gmail.com,"جووت سایدی دارەتوو, شارۆچکەی ناوەندیی هەولێر",هەولێر,Erbil,Shop/Retail,shop,36.12366,44.0587625,,,real,false,osm
مۆبایلی دانەر,,+9647504468663,,,"جووت سایدی دارەتوو, شارۆچکەی ناوەندیی هەولێر",هەولێر,Erbil,Shop/Retail,shop,36.1239083,44.0584643,,,real,false,osm
سوپەرمارکێتی سنەوبەر,,+9647504155840,,,"جووت سایدی دارەتوو, شارۆچکەی ناوەندیی هەولێر",هەولێر,Erbil,Shop/Retail,shop,36.1237013,44.058945,,,real,false,osm
ئاژیر مۆبایل,Azher mobile,+9647508690219,,sakar.shwani@gmail.com,"جووت سایدی دارەتوو, شارۆچکەی ناوەندیی هەولێر",هەولێر,Erbil,Shop/Retail,shop,36.1220891,44.0584204,,,real,false,osm
تیم مارت,TEAMMART,+9647517419154,https://team-mart.com/,info@team-mart.com,شارۆچکەی ناوەندیی هەولێر,هەولێر,Erbil,Shop/Retail,shop,36.137531,44.0436324,,,real,false,osm
مارکێتی ڕێگای بەهەشت,Regay Bahasht market,+9647501737550,,,,هەولێر,Erbil,Shop/Retail,shop,36.1385946,44.0480452,,,real,false,osm
ماركيت بروا قرجوغي,Market Brwa Qarachoxhe,+9647504924969,,kamaranb308@gmail.com,"868, گەرەکی نشتیمان",هەولێر,Erbil,Shop/Retail,shop,36.1155103,44.0683252,,,real,false,osm
تیم مارت-شارەوانی ٢,Teammart-Sharawani 2,+9647517411837,https://www.team-mart.com/,info@team-mart.com,"شەقامی کاردۆ گەڵاڵی, قضاء أربيل",أربيل,Erbil,Shop/Retail,shop,36.1580007,44.0482691,,,real,false,osm
سوپەرمارکێتی چوارچرا,Chwar Chra Super Market,+9647510501970,,,,Erbil,Erbil,Shop/Retail,shop,36.1839595,44.051715,,,real,false,osm
بەیبی سکای,,+9647506881516,https://instagram.com/baby.sky.erbil,,"شەقامی ئایشە گوڵ, قضاء أربيل",أربيل,Erbil,Shop/Retail,shop,36.1823085,44.0518654,,,real,false,osm
معرض لاسك,Lask Shop,+9647504472773,,,بیستی یەكەم,Erbil,Erbil,Shop/Retail,shop,36.1912454,44.0486831,,,real,false,osm
SALAM FASHION,,+9647808341959,,,"121 gullan, شەقامی ئایشە گوڵ, قضاء أربيل",أربيل,Erbil,Shop/Retail,shop,36.1820923,44.0546581,,,real,false,osm
سروران,Sarwaran,+9647504751807,,muhammadmuhsen@gmail.com,hewallaa str,Erbil,Erbil,Shop/Retail,shop,36.191758,44.0616742,,,real,false,osm
مارکێت و میوەی سەوەران,Sarwaran Supermarket,+9647502457300,,muhammadmuhsen11@gmail.com,شەقامی عەبدولخالق مەعروف,Erbil,Erbil,Shop/Retail,shop,36.1917353,44.0617076,,,real,false,osm
مارکیتی هەریاد,Market Haryad,+9647503639096,,,07503639096,Erbil,Erbil,Shop/Retail,shop,36.1781921,44.0791476,,,real,false,osm
قوماشی ئەوروپی فریاد,,+9647503525959,,,"شەقامی کۆرنیش, قضاء أربيل",أربيل,Erbil,Shop/Retail,shop,36.1757684,44.081815,,,real,false,osm
نوروز سوبرماركيت,Nawroz Supermarket,+9647503239931,,,,Erbil,Erbil,Shop/Retail,shop,36.1812362,44.0674757,,,real,false,osm
هەژار مارکێت,Hazhar Market,+9647504163521,,,رێگای بنەسراوە-دارەتوو,هەولێر,Erbil,Shop/Retail,shop,36.1504783,44.1031986,,,real,false,osm
Ahmed Phone,,+9647503700202,,,"Hawler-Koya road, Gullan 2, قضاء أربيل",أربيل,Erbil,Shop/Retail,shop,36.2004469,44.0512315,,,real,false,osm
Murad Phone,,+9647507094857,,,"32, 327-60, قضاء أربيل",أربيل,Erbil,Shop/Retail,shop,36.1997957,44.0488705,,,real,false,osm
soran class-2,,+9647506923030,,,"koya st, شەقامی کۆیە",erbil,Erbil,Shop/Retail,shop,36.1961008,44.0558231,,,real,false,osm
Mi Home Erbil,Mi Home Erbil,+9647508861004,,,"شەقامی پێشەوا قازی, شارۆچکەی ناوەندیی هەولێر",هەولێر,Erbil,Shop/Retail,shop,36.210575,44.0465365,,,real,false,osm
berk uniform,,+9647501506175,,berkuniform@gmail.com,1,Erbil,Erbil,Shop/Retail,shop,36.2054533,44.0598936,,,real,false,osm
Ismael.Tools(كوگاى اسماعيل.للبيع العدد يدوية والكهرباءية,tools,+9647504771469,http://ismael.tools@yahoo.com,,"100مترى پشت فاملى مول(خلف فاملي مول, قضاء أربيل",أربيل,Erbil,Shop/Retail,shop,36.2121597,44.0555843,,,real,false,osm
ك ماركت,K Market,+9647517001870,https://www.facebook.com/KaknjMarket/,,120M Frontage Rd.,Erbil,Erbil,Shop/Retail,shop,36.2144083,44.0684006,,,real,false,osm
دانا فۆن,Dana Shop Mobile,+9647501138232,,amozhgarsaade@gmail.com,هەولێری نوێ,Erbil,Erbil,Shop/Retail,shop,36.212358,44.0763081,,,real,false,osm
مارکێتی ماس,,+9647500550720,,,"شەقامی پیرمام, قضاء أربيل",أربيل,Erbil,Shop/Retail,shop,36.2368098,44.06363,,,real,false,osm
کۆگای سێبەردان,kogai sebardan,+9647504299872,http://www.kogaisebardan.com,abdullaburhan356@gmail.com,"1, sebardan",Erbil,Erbil,Shop/Retail,shop,36.2167936,44.0992277,,,real,false,osm
View Market,,+9647510177277,,,Aram Village,erbil,Erbil,Shop/Retail,shop,36.2449765,44.0413795,,,real,false,osm
SHUSHAWATY SORAN,,+9647501898182,,,,Erbil,Erbil,Shop/Retail,shop,36.2062897,44.0217012,,,real,false,osm
Hana Mobile,,+9647507966608,,,"123, unnamed road",شاوێس,Erbil,Shop/Retail,shop,36.2490246,44.0860253,,,real,false,osm
Ronya Net,,+9647507463022,https://www.facebook.com/ronya.net2,,Shaqlawa Road,Erbil,Erbil,Shop/Retail,shop,36.248398,44.0869926,,,real,false,osm
هایپەرمارکێتی ئاماس,Amas hypermarket,+9647502007997,http://amas-market.cf/#/,,"3, شەقامی پیرمام, شارۆچکەی ناوەندیی هەولێر",هەولێر,Erbil,Shop/Retail,shop,36.2562271,44.0831173,,,real,false,osm
wasta hakem,wasta hakem,+9647507279890,https://www.facebook.com/%D9%88%DB%95%D8%B3%D8%AA%D8%A7-%D8%AD%DA%A9%DB%8C%D9%85-105355754576651/,omerhakem2@gmail.com,"Makhmur Road, قضاء أربيل",أربيل,Erbil,Shop/Retail,shop,36.1498802,43.9856877,,,real,false,osm
Market Lyhat,,+9647511077628,https://www.facebook.com/4AHK4,,"rozhbayani st, قضاء أربيل",أربيل,Erbil,Shop/Retail,shop,36.1840296,43.959036,,,real,false,osm
سوپەرمارکێتی دانێر,Daner supermarket,+9647504287318,,,"شەقامی جەودەت ئەحمەد ناجی, قضاء أربيل",أربيل,Erbil,Shop/Retail,shop,36.1723193,44.0063558,,,real,false,osm
سیدرە ڤی ئایپی,,+9647504240003,https://www.instagram.com/sedra_vip_fashion,,"شەقامی کەرکووک, قضاء أربيل",أربيل,Erbil,Shop/Retail,shop,36.1708062,44.0139838,,,real,false,osm
Qadr Khoshnaw,,+9647504139328,,,109-53,Erbil,Erbil,Shop/Retail,shop,36.1898012,44.0115045,,,real,false,osm
Serpil Vip,,+9647504240003,https://www.instagram.com/serpil__fashion_vip,,"شەقامی سامی شۆڕش, قضاء أربيل",أربيل,Erbil,Shop/Retail,shop,36.2013054,43.9936654,,,real,false,osm
zingal riche,,+9647502254001,,,"DKTOR MUHAMMAD SHERKO ST., قضاء أربيل",أربيل,Erbil,Shop/Retail,shop,36.2098219,43.9895548,,,real,false,osm
rahel fashion,,+9647503316333,,,"ankawa, قضاء أربيل",أربيل,Erbil,Shop/Retail,shop,36.2347363,43.9921657,,,real,false,osm
سوق مەرکەزی هەورێ,Hawre Supermarket,+9647704495000,,,قضاء أربيل,أربيل,Erbil,Shop/Retail,shop,36.1661014,44.0586596,,,real,false,osm
soran class,,+9647506923030,,,"koya st, شەقامی کۆیە",أربيل,Erbil,Shop/Retail,shop,36.1959937,44.0553708,,,real,false,osm
تيم مارت,TEAMMART,,https://team-mart.com/,,,Erbil,Erbil,Shop/Retail,shop,36.1638976,43.9038169,,,partial,false,osm
Al Momtaz Co. Food,,,,,,هەولێر,Erbil,Shop/Retail,shop,36.19148,43.90532,,,partial,false,osm
کۆگای نانەکەلی,Nanakali Store,,,,ڕێگای گوێڕ,هەولێر,Erbil,Shop/Retail,shop,36.1744989,43.9149967,,,partial,false,osm
ماركێتی مەتین,,,,,,Erbil,Erbil,Shop/Retail,shop,36.115531,43.9654635,,,partial,false,osm
مارکیتی یاسین و کورەکانی,Yasen u kurakane market,,,,,أربيل,Erbil,Shop/Retail,shop,36.1264832,43.9685761,,,partial,false,osm
سەبر مارکیت قامشلو,Qamishlo super market,,,,شەقامی مەخموور,أربيل,Erbil,Shop/Retail,shop,36.1237609,43.9696991,,,partial,false,osm
kamal phone,,,,,Erbil - mamzawa- nzik mzgawti haji osman,أربيل,Erbil,Shop/Retail,shop,36.121296,43.969421,,,partial,false,osm
market qamishlo,,,,,Erbil- mamzawa- nzik mzgawti haji osman,أربيل,Erbil,Shop/Retail,shop,36.123096,43.969875,,,partial,false,osm
market warzhin,,,,,garaky barzan nzik dayray haryq,أربيل,Erbil,Shop/Retail,shop,36.120998,43.969368,,,partial,false,osm
مارکیتی بەژدار سەرکاریز,Market bazhdar sarkarez,,,,,أربيل,Erbil,Shop/Retail,shop,36.1282369,43.9632449,,,partial,false,osm
تیمارت مامزاوە,Teammart mamzawa,,,,شەقامی مەخموور,أربيل,Erbil,Shop/Retail,shop,36.1286465,43.9710771,,,partial,false,osm
سوپەرمارکێتی شاری ئاسوودە,,,,,,هەولێر,Erbil,Shop/Retail,shop,36.1080727,44.0241461,,,partial,false,osm
سوپەرمارکێتی یاسا,,,,,شارۆچکەی ناوەندیی هەولێر,هەولێر,Erbil,Shop/Retail,shop,36.1256191,44.0097419,,,partial,false,osm
مارکێتی ڕێدار,,,,ammar.habeeb2015@gmail.com,شارۆچکەی ناوەندیی هەولێر,هەولێر,Erbil,Shop/Retail,shop,36.1256807,44.0121218,,,partial,false,osm
سوپەر مارکێتی محمد,super market muhamad,,,,ڕێگەی کۆنی کەرکووک,Erbil,Erbil,Shop/Retail,shop,36.124392,44.0130343,,,partial,false,osm
market mohamed,,,,,zhyan psht bnkay asaesh,أربيل,Erbil,Shop/Retail,shop,36.124882,44.01321,,,partial,false,osm
مارکێتی کارزان,,,,,,أربيل,Erbil,Shop/Retail,shop,36.1244185,44.0202396,,,partial,false,osm
مارکێتی سەید,,,,,شارۆچکەی ناوەندیی هەولێر,هەولێر,Erbil,Shop/Retail,shop,36.1244671,44.017595,,,partial,false,osm
مارکێتی ئالان,,,,,,هەولێر,Erbil,Shop/Retail,shop,36.122735,44.0182243,,,partial,false,osm
market aemn,,,,,zhyan psht bnkay asaesh,أربيل,Erbil,Shop/Retail,shop,36.126007,44.015461,,,partial,false,osm
mobaile orginal,,,,,zhyan baram bar market karzan,أربيل,Erbil,Shop/Retail,shop,36.124378,44.020493,,,partial,false,osm
مارکێتی محمد ژیان,markete mhamad zhyan,,,,07501737550,Erbil,Erbil,Shop/Retail,shop,36.1224996,44.0181451,,,partial,false,osm
جلفرۆشی لۆنا,,,,,,أربيل,Erbil,Shop/Retail,shop,36.1245093,44.0224008,,,partial,false,osm
باهۆز,,,,,,هەولێر,Erbil,Shop/Retail,shop,36.1243659,44.0221917,,,partial,false,osm
جلوبەرگی فایە,Faya moda,,,,,هەولێر,Erbil,Shop/Retail,shop,36.1243214,44.0213925,,,partial,false,osm
محمد,,,,,,Erbil,Erbil,Shop/Retail,shop,36.187545,43.9563128,,,partial,false,osm
hana mobaile,,,,,zhyan barambar gyadarmany zhyan,أربيل,Erbil,Shop/Retail,shop,36.124451,44.022263,,,partial,false,osm
mobaeli dyar,,,,,zhin,أربيل,Erbil,Shop/Retail,shop,36.124481,44.022175,,,partial,false,osm
فایة,FAIA MODA,,,,,Erbil,Erbil,Shop/Retail,shop,36.1243553,44.0213853,,,partial,false,osm
سوپەرمارکێتی ڕۆشنبیری,,,,,شارۆچکەی ناوەندیی هەولێر,هەولێر,Erbil,Shop/Retail,shop,36.1285225,44.0332268,,,partial,false,osm
مارکێتی ئادەم,Adam Market,,,,شارۆچکەی ناوەندیی هەولێر,هەولێر,Erbil,Shop/Retail,shop,36.1310797,44.0292147,,,partial,false,osm
تیم مارت,TEAMMART,,https://team-mart.com/,info@team-mart.com,شارۆچکەی ناوەندیی هەولێر,هەولێر,Erbil,Shop/Retail,shop,36.1307683,44.0368083,,,partial,false,osm
مارکێتی ڕێکان,,,,,شارۆچکەی ناوەندیی هەولێر,هەولێر,Erbil,Shop/Retail,shop,36.130016,44.03781,,,partial,false,osm
بازاری سپی,bazry spi,,https://www.samco.net/,sammuhammadaminsam@gmail.com,"6X6P+2XX, 306-159",Erbil,Erbil,Shop/Retail,shop,36.1516768,43.970355,,,partial,false,osm
سوپەرمارکێتی ڕێبین,,,,,قضاء أربيل,أربيل,Erbil,Shop/Retail,shop,36.1473952,43.9790345,,,partial,false,osm
ريباز تبريدجي,Rebaz Tabredchy,,,,,Erbil,Erbil,Shop/Retail,shop,36.1497698,43.985671,,,partial,false,osm
ارو فاستبةي,Aro Fastpay,,http://Fastpay.com,Aramalmani71@gmail.com,فەرعی یەکەم پێش مزگەوتی بەرزنجی,Erbil,Erbil,Shop/Retail,shop,36.15218,43.9876793,,,partial,false,osm
تيم مارت,TEAMMART,,https://team-mart.com/,info@team-mart.com,قضاء أربيل,أربيل,Erbil,Shop/Retail,shop,36.1563115,43.972198,,,partial,false,osm
sima phone,,,,,"Erbil, mantk jaday gshtiy",أربيل,Erbil,Shop/Retail,shop,36.156796,43.97094,,,partial,false,osm
تيم مارت,TEAMMART,,https://team-mart.com/,info@team-mart.com,قضاء أربيل,أربيل,Erbil,Shop/Retail,shop,36.1532025,43.9761191,,,partial,false,osm
market Hanar,,,,,garake shadi,أربيل,Erbil,Shop/Retail,shop,36.156292,43.9807358,,,partial,false,osm
هەفتە بازاڕ,,,,,"شەقامی پێشەوا قازی, قضاء أربيل",أربيل,Erbil,Shop/Retail,shop,36.157348,43.9875567,,,partial,false,osm
هێلپ سیتی,Help City,,,,,Erbil,Erbil,Shop/Retail,shop,36.1585667,43.982108,,,partial,false,osm
Hersh Market,,,,,ئەلبان,Erbil,Erbil,Shop/Retail,shop,36.1625061,43.9840801,,,partial,false,osm
سوپەرمارکێتی دەرباز,,,,,شارۆچکەی ناوەندیی هەولێر,هەولێر,Erbil,Shop/Retail,shop,36.1697894,43.9372219,,,partial,false,osm
ماركيت كازم,kazm market,,,,,Erbil,Erbil,Shop/Retail,shop,36.1662949,43.9406223,,,partial,false,osm
ماڕکێتی سورچی,Surchi Market,,,,,Erbil,Erbil,Shop/Retail,shop,36.1674891,43.9404223,,,partial,false,osm
مارکێتی ئاسۆ,,,,,,هەولێر,Erbil,Shop/Retail,shop,36.1673987,43.9587213,,,partial,false,osm
کاکە زیاد,,,,,,Erbil,Erbil,Shop/Retail,shop,36.1850788,43.9543395,,,partial,false,osm
نيويورك,,,,,,Erbil,Erbil,Shop/Retail,shop,36.1884295,43.9614408,,,partial,false,osm
بلان بازاڕ ٩,Blan Bazar 9,,,ammar.habeeb2015@gmail.com,"ڕێگای هەولێر - موسڵ, قضاء أربيل",أربيل,Erbil,Shop/Retail,shop,36.1801722,43.961376,,,partial,false,osm
زریان,,,,,,Erbil,Erbil,Shop/Retail,shop,36.1826839,43.9553403,,,partial,false,osm
کەیوان,,,,,,Erbil,Erbil,Shop/Retail,shop,36.1835283,43.9554778,,,partial,false,osm
دلین,,,,,,Erbil,Erbil,Shop/Retail,shop,36.184053,43.9572278,,,partial,false,osm
ڕۆژباش /ھندی,,,,,,Erbil,Erbil,Shop/Retail,shop,36.1868899,43.9537298,,,partial,false,osm
تیم مارت,TEAMMART,,https://team-mart.com/,info@team-mart.com,"شەقامی ڕۆژبەیانی, شارۆچکەی ناوەندیی هەولێر",هەولێر,Erbil,Shop/Retail,shop,36.1882105,43.9588582,,,partial,false,osm
نيو يورك,New York,,,,"two Line Sarbasti St., شارۆچکەی ناوەندی هەولێر",هەولێر,Erbil,Shop/Retail,shop,36.191956,43.9607028,,,partial,false,osm
كوردستان,,,,,شارۆچکەی ناوەندی هەولێر,هەولێر,Erbil,Shop/Retail,shop,36.1921088,43.9591582,,,partial,false,osm
لادئ,,,,,,Erbil,Erbil,Shop/Retail,shop,36.192148,43.9596447,,,partial,false,osm
قاوشلو سوري,,,,,,Erbil,Erbil,Shop/Retail,shop,36.1883399,43.9611606,,,partial,false,osm
مارکێتی گوڵ,,,,,"شەقامی ڕۆژبەیانی, شارۆچکەی ناوەندیی هەولێر",هەولێر,Erbil,Shop/Retail,shop,36.1860984,43.958856,,,partial,false,osm
ئوسلو,,,,,,Erbil,Erbil,Shop/Retail,shop,36.1917693,43.9549988,,,partial,false,osm
Mevan,,,,,,Erbil,Erbil,Shop/Retail,shop,36.1902454,43.9550982,,,partial,false,osm
مستةفا,,,,,شارۆچکەی ناوەندی هەولێر,هەولێر,Erbil,Shop/Retail,shop,36.1918046,43.9577693,,,partial,false,osm
دوا,,,,,شارۆچکەی ناوەندی هەولێر,هەولێر,Erbil,Shop/Retail,shop,36.1920147,43.9600067,,,partial,false,osm
تيم مارت,TEAMMART,,https://team-mart.com/,info@team-mart.com,"شەقامی نەورۆز, قضاء أربيل",أربيل,Erbil,Shop/Retail,shop,36.1667204,43.9742129,,,partial,false,osm
Ibraheem Market,Ibraheem Market,,,,209-291,Erbil,Erbil,Shop/Retail,shop,36.1766001,43.9670742,,,partial,false,osm
ئاوینە - Awêne,,,,,,Erbil,Erbil,Shop/Retail,shop,36.1739683,43.9719086,,,partial,false,osm
مارکێتی ئاسۆ,,,,,,Erbil,Erbil,Shop/Retail,shop,36.1750768,43.9729172,,,partial,false,osm
فرۆشگای دڵدار,,,,,قضاء أربيل,أربيل,Erbil,Shop/Retail,shop,36.1694416,43.9805098,,,partial,false,osm
ماركئتي رحمن,,,,,,Erbil,Erbil,Shop/Retail,shop,36.1698712,43.9811327,,,partial,false,osm
مارکێتی یاران,,,,,قضاء أربيل,أربيل,Erbil,Shop/Retail,shop,36.1714326,43.9774654,,,partial,false,osm
HD phone,,,,,adala nzek hotel merci,أربيل,Erbil,Shop/Retail,shop,36.17017,43.986202,,,partial,false,osm
market dya,,,,,kurdstan:barambar qutabxanai roshnai,أربيل,Erbil,Shop/Retail,shop,36.169029,43.984993,,,partial,false,osm
تیم مارت - نەورۆز,Teammart - Newroz,,https://www.team-mart.com/,info@team-mart.com,قضاء أربيل,أربيل,Erbil,Shop/Retail,shop,36.1756147,43.9761847,,,partial,false,osm
Merket sardam,,,,,40 matri hayhaskari barmbar k market,أربيل,Erbil,Shop/Retail,shop,36.177696,43.980114,,,partial,false,osm
ماركئتي هونةر,سوپه ر ماركيتي هونه ر,,,,,Erbil,Erbil,Shop/Retail,shop,36.1727836,43.9855712,,,partial,false,osm
Halmat,,,,,نیشتیمان,Erbil,Erbil,Shop/Retail,shop,36.1787684,43.9849487,,,partial,false,osm
market malak,,,,,99zanko nzek gas sangar,أربيل,Erbil,Shop/Retail,shop,36.155144,44.013287,,,partial,false,osm
تیمارت - کوردستان,Temmart - Kurdistan,,,,"شەقامی زوورگه‌زراو, قضاء أربيل",أربيل,Erbil,Shop/Retail,shop,36.1728046,43.9863362,,,partial,false,osm
تيم مارت,Team Mart,,https://team-mart.com/,,,Erbil,Erbil,Shop/Retail,shop,36.1784137,43.9856288,,,partial,false,osm
گروپی گەیلان,Gaylan Group,,,,,Erbil,Erbil,Shop/Retail,shop,36.1749764,43.9839993,,,partial,false,osm
بەرێوەبەرایەتی کۆمپانیای باغی شەقلاوە,baghy shaqlawa real estate management department,,,,"33, Italian Village Road",Erbil,Erbil,Shop/Retail,shop,36.1862788,43.9638783,,,partial,false,osm
نیویۆڕک مارکێت,newyourk market,,,,07501737550,Erbil,Erbil,Shop/Retail,shop,36.1883956,43.9615759,,,partial,false,osm
مارکێتی نیویۆرک,new yourk market,,,,"07501737550, جووت سایدی ٣٢ پارک",Erbil,Erbil,Shop/Retail,shop,36.1884116,43.9616845,,,partial,false,osm
ماركيت اطالي,,,,,قضاء أربيل,أربيل,Erbil,Shop/Retail,shop,36.1883883,43.9686647,,,partial,false,osm
ئیتاڵی یەک مارکێت,itali 1 market,,,,07501737550,Erbil,Erbil,Shop/Retail,shop,36.1884343,43.9692575,,,partial,false,osm
Elaf stock,,,,,,Erbil,Erbil,Shop/Retail,shop,36.1469748,44.0015393,,,partial,false,osm
market rasty,,,,,adala nzek banzenxanay krestal,أربيل,Erbil,Shop/Retail,shop,36.151051,44.013966,,,partial,false,osm
mobail paitaxt,,,,,adala,أربيل,Erbil,Shop/Retail,shop,36.152466,44.013752,,,partial,false,osm
لازیا 5,lazya 5,,,,07501737550,Erbil,Erbil,Shop/Retail,shop,36.1497935,44.0139609,,,partial,false,osm
market abu ali,,,,,gemade nzik mzgawti buxari,أربيل,Erbil,Shop/Retail,shop,36.159432,43.989899,,,partial,false,osm
mntaz market,,,,,jadai maxmur nzik mzgawti haji aziz,أربيل,Erbil,Shop/Retail,shop,36.16222,43.988731,,,partial,false,osm
مارکێتی سیمپلی,Simply Market,,,,,Erbil,Erbil,Shop/Retail,shop,36.1644858,43.9947805,,,partial,false,osm
مارکی تی الان,,,,,,Erbil,Erbil,Shop/Retail,shop,36.1548562,44.0104703,,,partial,false,osm
موحەمەد,,,,,,Erbil,Erbil,Shop/Retail,shop,36.1588234,44.0247141,,,partial,false,osm
ڕۆژ ئاڤا مارکێت,rozh ava market,,,,"07501737550, شەقامی پیرباڵ مەحمود",Erbil,Erbil,Shop/Retail,shop,36.1557748,44.0131885,,,partial,false,osm
ماركيت زيان,,,,,قضاء أربيل,أربيل,Erbil,Shop/Retail,shop,36.1629637,44.0061327,,,partial,false,osm
ماركيت ريبوار,,,,,قضاء أربيل,أربيل,Erbil,Shop/Retail,shop,36.1633621,44.0055319,,,partial,false,osm
وێستگەی کارەبای هەولێر,,,,,قضاء أربيل,أربيل,Erbil,Shop/Retail,shop,36.1650527,44.0097573,,,partial,false,osm
Biko - Customer Service,Biko - Customer Service,,,,,Erbil,Erbil,Shop/Retail,shop,36.1606866,44.0084061,,,partial,false,osm
داروان مدرن ٢,Darewan modern 2,,,,قضاء أربيل,أربيل,Erbil,Shop/Retail,shop,36.1658861,44.0099188,,,partial,false,osm
سه نتري صيانه ي بيكو,Beko Maintenance center,,,,قضاء أربيل,أربيل,Erbil,Shop/Retail,shop,36.1601566,44.0090815,,,partial,false,osm
مالی داهاتوو - online shopping,Future House - ماڵی داهاتوو,,,,شارۆچکەی ناوەندی هەولێر,هەولێر,Erbil,Shop/Retail,shop,36.1419434,44.0153453,,,partial,false,osm
جیاواز ٢,Jiyawaz Market 2,,,,"شەقامی پیرباڵ مەحمود, شارۆچکەی ناوەندی هەولێر",هەولێر,Erbil,Shop/Retail,shop,36.1418749,44.0153499,,,partial,false,osm
جیاواز 2,jyawaz 2,,,,"07501737550, شارۆچکەی ناوەندی هەولێر",هەولێر,Erbil,Shop/Retail,shop,36.1421008,44.0152883,,,partial,false,osm
ئاهین عەدالە,ahin mrket,,,,"07501737550, شارۆچکەی ناوەندی هەولێر",هەولێر,Erbil,Shop/Retail,shop,36.1409146,44.0155242,,,partial,false,osm
ماڕکێتی گوڵ,Gull Market,,,,قضاء أربيل,أربيل,Erbil,Shop/Retail,shop,36.1467899,44.014487,,,partial,false,osm
پۆشاکی احمد عبداللە,,,,,,Erbil,Erbil,Shop/Retail,shop,36.1638771,44.0297788,,,partial,false,osm
ماکسی مۆڵ,Maximall,,,,"116, شەقامی کەرکووک, شارۆچکەی ناوەندیی هەولێر",هەولێر,Erbil,Shop/Retail,shop,36.1522545,44.0178854,,,partial,false,osm
پاوڵ مارک,,,,,"شەقامی کەرکووک, شارۆچکەی ناوەندیی هەولێر",هەولێر,Erbil,Shop/Retail,shop,36.1521846,44.0179045,,,partial,false,osm
لازیای عەداڵە,lazya adala,,,,قضاء أربيل,أربيل,Erbil,Shop/Retail,shop,36.1494185,44.014192,,,partial,false,osm
market shaxy,,,,,adala nzik banzinxanay crystal,أربيل,Erbil,Shop/Retail,shop,36.149883,44.014282,,,partial,false,osm
مارکێتی ABCD,ABCD Market,,,,دێی زانکۆ ٢,هەولێر,Erbil,Shop/Retail,shop,36.1428383,44.0331608,,,partial,false,osm
ماڕکێتی پاریس,Paris Market,,,,شەقامی زانکۆ,Erbil,Erbil,Shop/Retail,shop,36.1506016,44.036286,,,partial,false,osm
تیم مارت,TEAMMART,,https://team-mart.com/,info@team-mart.com,"شەقامی زانکۆ, شارۆچکەی ناوەندیی هەولێر",هەولێر,Erbil,Shop/Retail,shop,36.1502007,44.0350729,,,partial,false,osm
ماركيت سي يوو,,,,,قضاء أربيل,أربيل,Erbil,Shop/Retail,shop,36.1512792,44.0378257,,,partial,false,osm
مارکێتی سەمیر,,,,,"شەقامی سمکۆ مەنتک, قضاء أربيل",أربيل,Erbil,Shop/Retail,shop,36.159356,44.0243306,,,partial,false,osm
وان,,,,,,Erbil,Erbil,Shop/Retail,shop,36.1591289,44.0243911,,,partial,false,osm
ISA COSMETICS,,,,,,Erbil,Erbil,Shop/Retail,shop,36.1588847,44.0246725,,,partial,false,osm
لەندەن,,,,,,Erbil,Erbil,Shop/Retail,shop,36.1589124,44.0246243,,,partial,false,osm
پێشانگای ئارێز,,,,,,Erbil,Erbil,Shop/Retail,shop,36.158987,44.0246493,,,partial,false,osm
سوپەرمارکێتی کاکنج,K market,,,,"شەقامی پێشەوا قازی, قضاء أربيل",أربيل,Erbil,Shop/Retail,shop,36.157132,44.0235725,,,partial,false,osm
Mail bazar,Mail market,,,,,Erbil,Erbil,Shop/Retail,shop,36.1537536,44.0268689,,,partial,false,osm
سوپەرمارکێتی لازیا,Market Lazya,,,,شارۆچکەی ناوەندیی هەولێر,هەولێر,Erbil,Shop/Retail,shop,36.165066,44.0218546,,,partial,false,osm
آيو مول,Ayw mall,,,,,Erbil,Erbil,Shop/Retail,shop,36.1614297,44.0263913,,,partial,false,osm
Poza Phone,,,,,قضاء أربيل,أربيل,Erbil,Shop/Retail,shop,36.1636993,44.0224906,,,partial,false,osm
سوپەرمارکێتی نەجات,,,,,قضاء أربيل,أربيل,Erbil,Shop/Retail,shop,36.1598162,44.0241709,,,partial,false,osm
Sana shop,,,,,,Erbil,Erbil,Shop/Retail,shop,36.1618116,44.0235043,,,partial,false,osm
All Fresh Market,,,,,,Erbil,Erbil,Shop/Retail,shop,36.1654774,44.0231364,https://www.facebook.com/allfreshmarket/,,partial,false,osm
Foodmart,,,,,قضاء أربيل,أربيل,Erbil,Shop/Retail,shop,36.1654192,44.0225436,,,partial,false,osm
PASHA MOBILE,,,,,,Erbil,Erbil,Shop/Retail,shop,36.1600856,44.0241183,,,partial,false,osm
ڕێبین,,,,,قضاء أربيل,أربيل,Erbil,Shop/Retail,shop,36.1616675,44.0233817,,,partial,false,osm
بيشانكاي شاكؤل,,,,,,Erbil,Erbil,Shop/Retail,shop,36.1621283,44.023231,,,partial,false,osm
S&Q,,,,,قضاء أربيل,أربيل,Erbil,Shop/Retail,shop,36.1605611,44.0239732,,,partial,false,osm
مارکیتی مراز,,,,,,Erbil,Erbil,Shop/Retail,shop,36.1618738,44.0234976,,,partial,false,osm
لولو بیبی,Lolo baby,,,,شەقامی جەمال حەیدەری,Erbil,Erbil,Shop/Retail,shop,36.1653681,44.0227601,,,partial,false,osm
Team-Mart,,,,,,Erbil,Erbil,Shop/Retail,shop,36.1643388,44.0224359,,,partial,false,osm
مارکێتی شانیا,,,,,"شەقامی سمکۆ مەنتک, قضاء أربيل",أربيل,Erbil,Shop/Retail,shop,36.1625162,44.0231442,,,partial,false,osm
البسة رجالية مروان,,,,,,Erbil,Erbil,Shop/Retail,shop,36.1642227,44.0295463,,,partial,false,osm
سوبر ماركت - لازيا 1 - ملا عزير,,,,,مفتي ملا عزيز -(لازيا1),أربيل,Erbil,Shop/Retail,shop,36.1649433,44.0220967,,,partial,false,osm
market njat,,,,,هەولێر گەرەکی مەنتکاوە شەقامی سمکۆ مەنتک,أربيل,Erbil,Shop/Retail,shop,36.159805,44.024024,,,partial,false,osm
Bazgr mobile,,,,,mantkawa jadae malla wzer barambarvtorshe aje osman,أربيل,Erbil,Shop/Retail,shop,36.16143,44.023518,,,partial,false,osm
تيم مارت,TEAMMART,,https://team-mart.com/,,341-53,Erbil,Erbil,Shop/Retail,shop,36.154788,44.0292267,,,partial,false,osm
لارك,super market lark,,,,,Erbil,Erbil,Shop/Retail,shop,36.1549256,44.0297267,,,partial,false,osm
سوپەرمارکێتی سامان,Saman Supermarket,,,,"341-95, قضاء أربيل",أربيل,Erbil,Shop/Retail,shop,36.1532979,44.0328181,,,partial,false,osm
مارکێتی ھۆگر,,,,,"341-138, قضاء أربيل",أربيل,Erbil,Shop/Retail,shop,36.1536955,44.0313618,,,partial,false,osm
مارکێتی سەرباز,sarbaz market,,,,"341-53, قضاء أربيل",أربيل,Erbil,Shop/Retail,shop,36.1554822,44.0316657,,,partial,false,osm
مارکێتی مام ئازاد,market mam azad,,,,"341-53, قضاء أربيل",أربيل,Erbil,Shop/Retail,shop,36.1555429,44.0317964,,,partial,false,osm
تیم مارت,TEAMMART,,https://team-mart.com/,info@team-mart.com,"شەقامی نەمامگە, شارۆچکەی ناوەندیی هەولێر",هەولێر,Erbil,Shop/Retail,shop,36.1559067,44.0373961,,,partial,false,osm
پۆشاکی هەرزان بازاڕ,,,,,"شەقامی نەمامگە, قضاء أربيل",أربيل,Erbil,Shop/Retail,shop,36.160388,44.0329025,,,partial,false,osm
سوپەرمارکێتی خەرمان,Xarman Supermarket,,,,"341-95, قضاء أربيل",أربيل,Erbil,Shop/Retail,shop,36.1546357,44.0363431,,,partial,false,osm
Electrice Hadi,,,,,,Erbil,Erbil,Shop/Retail,shop,36.1555936,44.0382588,,,partial,false,osm
KOMANS PHONE,,,,,"شەقامی نەمامگە, قضاء أربيل",أربيل,Erbil,Shop/Retail,shop,36.1559749,44.0378733,,,partial,false,osm
سوپەرمارکێتی تاگ,,,,,زانكو قرب مستشفى زانكو الاهلي,أربيل,Erbil,Shop/Retail,shop,36.1536025,44.0394867,,,partial,false,osm
مارکێتی خەرمان,,,,,"شەقامی نەمامگە, قضاء أربيل",أربيل,Erbil,Shop/Retail,shop,36.1552997,44.0378453,,,partial,false,osm
Komas phone,,,,,94 badawa nzik gas sangar,أربيل,Erbil,Shop/Retail,shop,36.155888,44.037838,,,partial,false,osm
jehane jgara,,,,,sharawane nzek teemart,أربيل,Erbil,Shop/Retail,shop,36.154518,44.038654,,,partial,false,osm
ئەحمەد بەزاز,,,,Hama_botany@yahoo.com,"شەقامی ڕووناکی, قضاء أربيل",أربيل,Erbil,Shop/Retail,shop,36.1635754,44.0300575,,,partial,false,osm
محل هیوا,HIWA for socks,,,,,Erbil,Erbil,Shop/Retail,shop,36.164618,44.0291678,,,partial,false,osm
DUBAI,,,,,,Erbil,Erbil,Shop/Retail,shop,36.1643763,44.0294019,,,partial,false,osm
سالار جمال,,,,,,Erbil,Erbil,Shop/Retail,shop,36.1643366,44.0294358,,,partial,false,osm
ROZA BABY,,,,,,Erbil,Erbil,Shop/Retail,shop,36.1644346,44.0293552,,,partial,false,osm
QUEEN,,,,,,Erbil,Erbil,Shop/Retail,shop,36.1635146,44.0301595,,,partial,false,osm
Roza MODA,,,,,,Erbil,Erbil,Shop/Retail,shop,36.1635843,44.0300848,,,partial,false,osm
BIG FUN BABY,,,,,,Erbil,Erbil,Shop/Retail,shop,36.1634416,44.0302448,,,partial,false,osm
ZARO BABY,,,,,,Erbil,Erbil,Shop/Retail,shop,36.163486,44.0301926,,,partial,false,osm
پۆشاکی ميران,,,,,,Erbil,Erbil,Shop/Retail,shop,36.1627036,44.0310246,,,partial,false,osm
کوتاڵی تاوەر,,,,,,Erbil,Erbil,Shop/Retail,shop,36.1642959,44.0294706,,,partial,false,osm
Star Baby Rozh fashion,,,,,,Erbil,Erbil,Shop/Retail,shop,36.1641137,44.029633,,,partial,false,osm
البسة نسائية سارة,,,,,,Erbil,Erbil,Shop/Retail,shop,36.1642651,44.0295042,,,partial,false,osm
حجابات باشمينا,pashmina scarf,,,,,Erbil,Erbil,Shop/Retail,shop,36.1653891,44.0290548,,,partial,false,osm
پۆشاکی ڕۆمان,,,,,"شەقامی نەمامگە, قضاء أربيل",أربيل,Erbil,Shop/Retail,shop,36.1607866,44.0325189,,,partial,false,osm
کوتاڵی شاهان,,,,,"شەقامی جەمال حەیدەری, قضاء أربيل",أربيل,Erbil,Shop/Retail,shop,36.1659041,44.0320149,,,partial,false,osm
تيم مارت,TEAMMART,,https://team-mart.com/,info@team-mart.com,"شەقامی خانزاد, قضاء أربيل",أربيل,Erbil,Shop/Retail,shop,36.1613227,44.0372146,,,partial,false,osm
الان قشرة pvc,,,,,,Erbil,Erbil,Shop/Retail,shop,36.1644457,44.0337813,,,partial,false,osm
کۆگای هەرێم 2,Harem 2,,,,"شەقامی خانزاد, قضاء أربيل",أربيل,Erbil,Shop/Retail,shop,36.1615106,44.0373535,,,partial,false,osm
BOSCH,,,,,,Erbil,Erbil,Shop/Retail,shop,36.1642299,44.0344192,,,partial,false,osm
sako,,,,,,Erbil,Erbil,Shop/Retail,shop,36.1643956,44.0345168,,,partial,false,osm
پێشانگای ماکس بۆ مۆبایل,max exhibition for mobile phone,,,,,Erbil,Erbil,Shop/Retail,shop,36.1648938,44.0347968,,,partial,false,osm
ماکس,max store,,,,,Erbil,Erbil,Shop/Retail,shop,36.1649338,44.0348216,,,partial,false,osm
مارکێتی چیا,Chia super market,,,,"#map2020, شەقامی خانزاد, قضاء أربيل",أربيل,Erbil,Shop/Retail,shop,36.1605584,44.0396387,,,partial,false,osm
Azad jaf Solar,,,,,Makhmur Street,Erbil,Erbil,Shop/Retail,shop,36.1679261,43.9981599,,,partial,false,osm
pak,supermarket pak,,,,,Erbil,Erbil,Shop/Retail,shop,36.1689607,43.9994703,,,partial,false,osm
ماركيتى پاشا,Pasha Market,,,,طريق نوروز,Erbil,Erbil,Shop/Retail,shop,36.1779175,43.9882764,,,partial,false,osm
Elaf Company,,,,,"60 Meter road, قضاء أربيل",أربيل,Erbil,Shop/Retail,shop,36.1757746,43.9995917,,,partial,false,osm
سوپەرماكێتی دانێر,daner suparmarket,,,,قضاء أربيل,أربيل,Erbil,Shop/Retail,shop,36.1724186,44.0061939,,,partial,false,osm
دارا,Dara market,,,,,Erbil,Erbil,Shop/Retail,shop,36.1691316,44.0070839,,,partial,false,osm
تيم مارت,TEAMMART,,https://team-mart.com/,,,Erbil,Erbil,Shop/Retail,shop,36.16924,44.0009035,,,partial,false,osm
market city2,,,,,azady nzek qutabxanay azady kchan,أربيل,Erbil,Shop/Retail,shop,36.168476,44.007141,,,partial,false,osm
mobail evil,,,,,azady nzek gas azady,أربيل,Erbil,Shop/Retail,shop,36.169624,44.004402,,,partial,false,osm
market daner,,,,,azady tanesht maktabe nanakale kchan,أربيل,Erbil,Shop/Retail,shop,36.172279,44.00592,,,partial,false,osm
فینۆمین,fenomen,,,,قضاء أربيل,أربيل,Erbil,Shop/Retail,shop,36.1709016,44.0139649,,,partial,false,osm
Carrefour,,,,,"شەقامی کەرکووک, قضاء أربيل",أربيل,Erbil,Shop/Retail,shop,36.1720411,44.0134876,,,partial,false,osm
فریاد بۆ جانتا و پێڵاو,Fryad Place For Bags and Shoes,,,,"شەقامی کەرکووک, قضاء أربيل",أربيل,Erbil,Shop/Retail,shop,36.171663,44.0134375,,,partial,false,osm
لازیا ٣,LAZYA 3,,,,"Qasmlo Street, قضاء أربيل",أربيل,Erbil,Shop/Retail,shop,36.1678624,44.0108643,,,partial,false,osm
سوبر ماركت - لازيا 5 - عدالة,,,,,حي العدلة شارع الدو سايد-(لازيا5),أربيل,Erbil,Shop/Retail,shop,36.16783,44.0111917,,,partial,false,osm
marlin store,,,,,"azady, nzek mzgawty 9shahed",أربيل,Erbil,Shop/Retail,shop,36.166965,44.011208,,,partial,false,osm
market azady,,,,,azady nzek tablo mall,أربيل,Erbil,Shop/Retail,shop,36.168426,44.011124,,,partial,false,osm
ayad,ayad,,,,,Erbil,Erbil,Shop/Retail,shop,36.1758778,44.005651,,,partial,false,osm
عدنان,adnan,,,,,Erbil,Erbil,Shop/Retail,shop,36.1775596,44.0043754,,,partial,false,osm
Kozheen market,,,,,"60m, tanesht banzenxanae xala oil",أربيل,Erbil,Shop/Retail,shop,36.175983,44.00167,,,partial,false,osm
Daymart,,,,,zanyary,أربيل,Erbil,Shop/Retail,shop,36.174793,44.007912,,,partial,false,osm
شركة سيناتيل ـ مجموعة سينا,Sinagroup companies-Sinatel Company,,http://www.sina-group.com,info@sina-group.com,"شارع مئذنة, قضاء أربيل",أربيل,Erbil,Shop/Retail,shop,36.1854992,43.9943686,,,partial,false,osm
لحوم ارض السعدون,,,,,,Erbil,Erbil,Shop/Retail,shop,36.1882273,43.9970781,https://facebook.com/share/15QRoyWyLh,,partial,false,osm
Military Market,,,,,قضاء أربيل,أربيل,Erbil,Shop/Retail,shop,36.1841113,44.0117376,,,partial,false,osm
داون تاون,erbil downtown,,,,,Erbil,Erbil,Shop/Retail,shop,36.1846968,44.0117187,,,partial,false,osm
مۆبایلی سامسۆنگ جیبال,Samsung Jibal,,,,"شەقامی شێخی چۆلی, قضاء أربيل",أربيل,Erbil,Shop/Retail,shop,36.1874333,44.007412,,,partial,false,osm
قوماشفرۆشی ئەحمەد ئاکرەیی,,,,,قضاء أربيل,أربيل,Erbil,Shop/Retail,shop,36.1874956,44.0038757,,,partial,false,osm
Oppo,,,,,"شەقامی شێخی چۆلی, قضاء أربيل",أربيل,Erbil,Shop/Retail,shop,36.1875136,44.0059677,,,partial,false,osm
ICenter,,,,,,أربيل,Erbil,Shop/Retail,shop,36.1897795,44.0037127,,,partial,false,osm
نافع فون,Nafi Phones,,,,قضاء أربيل,أربيل,Erbil,Shop/Retail,shop,36.1899762,44.0112757,,,partial,false,osm
کارەباییاتی وەستا ئاراس,,,,,,Erbil,Erbil,Shop/Retail,shop,36.170024,44.037674,,,partial,false,osm
بازاری ھیوا,Hiwa bazar,,,,قضاء أربيل,أربيل,Erbil,Shop/Retail,shop,36.1876614,44.009806,,,partial,false,osm
ئەسێ بۆ مۆبایل,Asse Company,,,,قضاء أربيل,أربيل,Erbil,Shop/Retail,shop,36.1874817,44.0075769,,,partial,false,osm
Hawler qalat bazzar,,,,,قضاء أربيل,أربيل,Erbil,Shop/Retail,shop,36.1872612,44.0109411,,,partial,false,osm
محلات بيع ساعات يدوية,,,,,"شەقامی باتە, قضاء أربيل",أربيل,Erbil,Shop/Retail,shop,36.1888526,44.0078851,,,partial,false,osm
مزە,water pump,,,,"شەقامی قەڵات, قضاء أربيل",أربيل,Erbil,Shop/Retail,shop,36.1892068,44.0107955,,,partial,false,osm
sarhang pakat frosh,,,,,shexala,أربيل,Erbil,Shop/Retail,shop,36.188782,44.013481,,,partial,false,osm
azwae zmzm,,,,,bazar qaysary,أربيل,Erbil,Shop/Retail,shop,36.188421,44.007443,,,partial,false,osm
market karox,,,,,kuestan,أربيل,Erbil,Shop/Retail,shop,36.188709,44.01342,,,partial,false,osm
samad kart frosh,,,,,kotri salam la naw kotry salam,أربيل,Erbil,Shop/Retail,shop,36.187489,44.00769,,,partial,false,osm
mobayli adnan,,,,,kotry salam,أربيل,Erbil,Shop/Retail,shop,36.186535,44.008301,,,partial,false,osm
mobayli haryad,,,,,kotry salam,أربيل,Erbil,Shop/Retail,shop,36.187401,44.009037,,,partial,false,osm
kristall phon,,,,,kotry salam naw mobaylan,أربيل,Erbil,Shop/Retail,shop,36.187351,44.008446,,,partial,false,osm
مارکێتی ئیتی,ETI market,,,,"شەقامی کەرکووک, شارۆچکەی ناوەندیی هەولێر",هەولێر,Erbil,Shop/Retail,shop,36.1683229,44.0150705,,,partial,false,osm
Italian outlet with KG,,,,,قضاء أربيل,أربيل,Erbil,Shop/Retail,shop,36.1667737,44.0155294,,,partial,false,osm
Amazon Bookstore,,,,,,أربيل,Erbil,Shop/Retail,shop,36.1688455,44.0148007,,,partial,false,osm
سوپەرمارکێتی ڕووناکی,,,,,"شەقامی ڕووناکی, قضاء أربيل",أربيل,Erbil,Shop/Retail,shop,36.1685336,44.0251102,,,partial,false,osm
جلکفرۆشی کوخ,,,,,"شەقامی ڕووناکی, قضاء أربيل",أربيل,Erbil,Shop/Retail,shop,36.1712258,44.0232578,,,partial,false,osm
مارکێتی سۆفیا,,,,,"شەقامی ڕووناکی, قضاء أربيل",أربيل,Erbil,Shop/Retail,shop,36.1717201,44.0230245,,,partial,false,osm
هۆڵاند بازاڕ ١١,holland bazar 11,,,,"شەقامی ڕووناکی, قضاء أربيل",أربيل,Erbil,Shop/Retail,shop,36.1702167,44.0237327,,,partial,false,osm
پۆشاکفرۆشی شایستە,,,,,"شەقامی ڕووناکی, قضاء أربيل",أربيل,Erbil,Shop/Retail,shop,36.170445,44.0239367,,,partial,false,osm
كومپانياى icst,Icst company,,,,"شەقامی ڕووناکی, قضاء أربيل",أربيل,Erbil,Shop/Retail,shop,36.1704764,44.0239071,,,partial,false,osm
وكيل غذائية (طحين وزيت,,,,,"شەقامی ئیسکان, قضاء أربيل",أربيل,Erbil,Shop/Retail,shop,36.1777988,44.0182028,,,partial,false,osm
سوپەرمارکێتی لارە,,,,,قضاء أربيل,أربيل,Erbil,Shop/Retail,shop,36.1755711,44.020268,,,partial,false,osm
AT. ENERGY CO.,,,,,قضاء أربيل,أربيل,Erbil,Shop/Retail,shop,36.1758089,44.0204527,,,partial,false,osm
BCI شركة الكترونيات وكيل شركة سامسونك,,,,,"شەقامی ئیسکان, قضاء أربيل",أربيل,Erbil,Shop/Retail,shop,36.178522,44.017308,,,partial,false,osm
mobile Nwekar,,,,,eskan,أربيل,Erbil,Shop/Retail,shop,36.177757,44.018082,,,partial,false,osm
Meer Phone,,,,,eskan,أربيل,Erbil,Shop/Retail,shop,36.179058,44.016842,,,partial,false,osm
Market Rozh,,,,,"Erbil, eskan",أربيل,Erbil,Shop/Retail,shop,36.177907,44.018131,,,partial,false,osm
سەنتەری ڕێبوار,,,,,,Erbil,Erbil,Shop/Retail,shop,36.1709082,44.0378937,,,partial,false,osm
Koyoto Mobile,,,,,eskan,أربيل,Erbil,Shop/Retail,shop,36.178482,44.017334,,,partial,false,osm
mobile yashar,,,,,eskan,أربيل,Erbil,Shop/Retail,shop,36.177467,44.018414,,,partial,false,osm
Market rozh u shaw,,,,,eskan,أربيل,Erbil,Shop/Retail,shop,36.177952,44.017895,,,partial,false,osm
Aram phone,,,,,eskan,أربيل,Erbil,Shop/Retail,shop,36.178547,44.017277,,,partial,false,osm
market alan,,,,,eskan,أربيل,Erbil,Shop/Retail,shop,36.178864,44.016991,,,partial,false,osm
rose market,,,,,shorash- 7aeshwrta,أربيل,Erbil,Shop/Retail,shop,36.1769415,44.0177795,,,partial,false,osm
Mohamed Mobile,,,,,,أربيل,Erbil,Shop/Retail,shop,36.1788398,44.0165387,,,partial,false,osm
موئةيةد ماركيت,mused market,,,,Iskan,Erbil,Erbil,Shop/Retail,shop,36.1777204,44.0268489,,,partial,false,osm
مارکێتی هارون,,,,,"شەقامی ڕووناکی, قضاء أربيل",أربيل,Erbil,Shop/Retail,shop,36.1735301,44.0217287,,,partial,false,osm
سروە,,,,,"شەقامی ڕووناکی, قضاء أربيل",أربيل,Erbil,Shop/Retail,shop,36.1735785,44.0216962,,,partial,false,osm
Yalda Mobile,,,,,"Erbil, mufti",أربيل,Erbil,Shop/Retail,shop,36.173218,44.021847,,,partial,false,osm
Game Center,,,,,,أربيل,Erbil,Shop/Retail,shop,36.1739505,44.0212119,,,partial,false,osm
تیم مارت,Teammart,,https://team-mart.com/,info@team-mart.com,"229-60, شارۆچکەی ناوەندیی هەولێر",هەولێر,Erbil,Shop/Retail,shop,36.1707521,44.0277991,,,partial,false,osm
سوپەرمارکیتی باوەڕ ٢,,,,,"شەقامی جەمال حەیدەری, شارۆچکەی ناوەندیی هەولێر",هەولێر,Erbil,Shop/Retail,shop,36.1681015,44.0337043,,,partial,false,osm
سوپەرمارکێتی لایف ستی,,,,,"شەقامی جەمال حەیدەری, شارۆچکەی ناوەندیی هەولێر",هەولێر,Erbil,Shop/Retail,shop,36.1702493,44.0354483,,,partial,false,osm
پۆشاکی شڤان,,,,,"شەقامی جەمال حەیدەری, شارۆچکەی ناوەندیی هەولێر",هەولێر,Erbil,Shop/Retail,shop,36.1688854,44.0343569,,,partial,false,osm
market zryan,,,,,Erbil 40m chwaryane badawan,أربيل,Erbil,Shop/Retail,shop,36.171501,44.036301,,,partial,false,osm
mobaile Sarwan,,,,,100 matre barambar grupe Shazad,أربيل,Erbil,Shop/Retail,shop,36.167145,44.03656,,,partial,false,osm
مارکێتی دیار,Deyar Market,,,,قضاء أربيل,أربيل,Erbil,Shop/Retail,shop,36.1731172,44.0322241,,,partial,false,osm
ماى چيكين,My Chicken,,,,,Erbil,Erbil,Shop/Retail,shop,36.1773922,44.0292519,,,partial,false,osm
مارکێتی مام فەیسەل,,,,,قضاء أربيل,أربيل,Erbil,Shop/Retail,shop,36.1744602,44.0311976,,,partial,false,osm
ماركیت قالە,Qala market,,,,,Erbil,Erbil,Shop/Retail,shop,36.1789929,44.028863,,,partial,false,osm
ماركت قامشلو,Qamşlo Market,,,,,Erbil,Erbil,Shop/Retail,shop,36.1784639,44.0278191,,,partial,false,osm
سوپەرمارکێتی فەرحان,,,,,"شەقامی جەمال حەیدەری, شارۆچکەی ناوەندیی هەولێر",هەولێر,Erbil,Shop/Retail,shop,36.1751571,44.0364141,,,partial,false,osm
مۆڵی هەرزان,,,,,"شەقامی مەلا ئەفەندی, شارۆچکەی ناوەندیی هەولێر",هەولێر,Erbil,Shop/Retail,shop,36.1741253,44.0357695,,,partial,false,osm
Market Rekan,,,,,saydawa,أربيل,Erbil,Shop/Retail,shop,36.179821,44.023102,,,partial,false,osm
محلات الماء,,,,,,Erbil,Erbil,Shop/Retail,shop,36.1881344,44.0150049,,,partial,false,osm
jamal borsa,,,,,40 mtre bazary langa,أربيل,Erbil,Shop/Retail,shop,36.183708,44.036301,,,partial,false,osm
تیم مارت,Teammart,,https://team-mart.com/,info@team-mart.com,"شەقامی جەمال حەیدەری, شارۆچکەی ناوەندیی هەولێر",هەولێر,Erbil,Shop/Retail,shop,36.1763526,44.036371,,,partial,false,osm
پێشانگای نەجمەدین,,,,,"شەقامی پێشەوا قازی, قضاء أربيل",أربيل,Erbil,Shop/Retail,shop,36.1755002,44.0381951,,,partial,false,osm
محل حاجي حسین,mr. Hussein's market,,,,"شەقامی پێشەوا قازی, قضاء أربيل",أربيل,Erbil,Shop/Retail,shop,36.1744723,44.0390637,,,partial,false,osm
دوکانی داکی ڕوازی,,,,,"5, 227-60, شارۆچکەی ناوەندیی هەولێر",هەولێر,Erbil,Shop/Retail,shop,36.174649,44.0353027,,,partial,false,osm
جينيرال برلين,General Berlin,,,,"شەقامی بارزانی, قضاء أربيل",أربيل,Erbil,Shop/Retail,shop,36.1814787,44.0145865,,,partial,false,osm
CITY CENTER,,,,,قضاء أربيل,أربيل,Erbil,Shop/Retail,shop,36.1804146,44.0246277,,,partial,false,osm
مارکێت ئەلماس,,,,,قضاء أربيل,أربيل,Erbil,Shop/Retail,shop,36.1809608,44.0241583,,,partial,false,osm
گولفرۆشی هەولێر,,,,,قضاء أربيل,أربيل,Erbil,Shop/Retail,shop,36.1808923,44.0240831,,,partial,false,osm
سوبر ماركت - سوق مركزي هورى - نيو ستي,,,,,شارع 60متر,أربيل,Erbil,Shop/Retail,shop,36.18032,44.0241533,,,partial,false,osm
Market Ahmad,,,,,saydawa,أربيل,Erbil,Shop/Retail,shop,36.180847,44.022156,,,partial,false,osm
market shaswar,,,,,saydawa,أربيل,Erbil,Shop/Retail,shop,36.182087,44.020691,,,partial,false,osm
دەزگای شوان,Shwan Foundation,,,,"Mustafa Uzeri Street, قضاء أربيل",أربيل,Erbil,Shop/Retail,shop,36.1898019,44.0151593,,,partial,false,osm
محل العسل,,,,,,Erbil,Erbil,Shop/Retail,shop,36.1882951,44.0149437,,,partial,false,osm
پيشانكاى الاقصى,,,,,,Erbil,Erbil,Shop/Retail,shop,36.1917234,44.0155409,,,partial,false,osm
معرض الاقصى,Al-aqsa for shopping,,,aymanamaan968@gmail.com,شه قامي شيخ مصطفى,Erbil,Erbil,Shop/Retail,shop,36.1917065,44.0155105,,,partial,false,osm
سوق شيخ الله,,,,,,Erbil,Erbil,Shop/Retail,shop,36.1860646,44.015671,,,partial,false,osm
qandel,,,,,Erbil bazary shexala naw borsay,أربيل,Erbil,Shop/Retail,shop,36.187771,44.014067,,,partial,false,osm
Mobile karwan,,,,,saydawa,أربيل,Erbil,Shop/Retail,shop,36.185906,44.014519,,,partial,false,osm
رنكين للانارة,renging lighting,,,,قضاء أربيل,أربيل,Erbil,Shop/Retail,shop,36.1907374,44.0243475,,,partial,false,osm
ئةلماس,alamas,,,,قضاء أربيل,أربيل,Erbil,Shop/Retail,shop,36.190619,44.0213032,,,partial,false,osm
market nawzad,,,,,"Erbil, nzik mzgawty hajy mrad",أربيل,Erbil,Shop/Retail,shop,36.186394,44.026039,,,partial,false,osm
علی ماركیت,Ali market,,,,,Erbil,Erbil,Shop/Retail,shop,36.1797898,44.0304019,,,partial,false,osm
ماركێتی تاهیر و زاهیر,,,,,,Erbil,Erbil,Shop/Retail,shop,36.1808772,44.0327255,,,partial,false,osm
سوق ٤٠ متري (سوق اللنگة),50 Meters Merket,,,,"شەقامی پێشەوا قازی, قضاء أربيل",أربيل,Erbil,Shop/Retail,shop,36.183398,44.038009,,,partial,false,osm
Fero ferman,,,,,"شەقامی جەمال حەیدەری, شارۆچکەی ناوەندیی هەولێر",هەولێر,Erbil,Shop/Retail,shop,36.1820327,44.0365467,,,partial,false,osm
بالة اربيل,,,,,Ala Street,Erbil,Erbil,Shop/Retail,shop,36.1825498,44.0388625,,,partial,false,osm
Max phone,,,,,langa tanesht mobile enas,أربيل,Erbil,Shop/Retail,shop,36.182125,44.038498,,,partial,false,osm
NEROSOFT MOBILE,,,,,Erbil 40m street near Sooq langa,أربيل,Erbil,Shop/Retail,shop,36.179718,44.036469,,,partial,false,osm
mobile rybak,,,,,langa tanesht mobile hataw,أربيل,Erbil,Shop/Retail,shop,36.182053,44.03867,,,partial,false,osm
Boon Mobile,,,,,,أربيل,Erbil,Shop/Retail,shop,36.1841385,44.036283,,,partial,false,osm
البان,,,,,قضاء أربيل,أربيل,Erbil,Shop/Retail,shop,36.1914489,44.0277328,,,partial,false,osm
لبن غنم اربيل,,,,,قضاء أربيل,أربيل,Erbil,Shop/Retail,shop,36.1914364,44.0277171,,,partial,false,osm
سەنتەری ئێل جی خۆشناو,LG Koshnaw Store,,,,شەقامی کۆیە,Erbil,Erbil,Shop/Retail,shop,36.1917679,44.029841,,,partial,false,osm
ftm,,,,,قضاء أربيل,أربيل,Erbil,Shop/Retail,shop,36.1911205,44.0275961,,,partial,false,osm
Market Iraq,,,,,"Gulan st, 40metre",أربيل,Erbil,Shop/Retail,shop,36.1869958,44.0362106,,,partial,false,osm
تيم مارت,TEAMMART,,https://team-mart.com/,info@team-mart.com,قضاء أربيل,أربيل,Erbil,Shop/Retail,shop,36.1983453,43.9605174,,,partial,false,osm
32 پارك,,,,,,Erbil,Erbil,Shop/Retail,shop,36.1979123,43.9608665,,,partial,false,osm
محمد سوري,Muhammad Suri,,,,,Erbil,Erbil,Shop/Retail,shop,36.1940605,43.9556527,,,partial,false,osm
عمر,,,,,,Erbil,Erbil,Shop/Retail,shop,36.1946164,43.9562736,,,partial,false,osm
چياڤان,,,,,,Erbil,Erbil,Shop/Retail,shop,36.1971941,43.9575291,,,partial,false,osm
ريبين,,,,,,Erbil,Erbil,Shop/Retail,shop,36.1955043,43.9562878,,,partial,false,osm
اورنج,,,,,,Erbil,Erbil,Shop/Retail,shop,36.1960441,43.956692,,,partial,false,osm
شانيا,,,,,,Erbil,Erbil,Shop/Retail,shop,36.2000799,43.9586869,,,partial,false,osm
سوپەرمارکێتی هۆڵەند بازاڕ ٦,Holland Bazar 6,,,,"شەقامی هێمن موکریانی, قضاء أربيل",أربيل,Erbil,Shop/Retail,shop,36.196481,43.9655075,,,partial,false,osm
هولاند ٧,,,,,,Erbil,Erbil,Shop/Retail,shop,36.1937682,43.9643756,,,partial,false,osm
پاكيزة,,,,,,Erbil,Erbil,Shop/Retail,shop,36.1970889,43.9628617,,,partial,false,osm
پارك ماركيت,,,,,,Erbil,Erbil,Shop/Retail,shop,36.1983301,43.963257,,,partial,false,osm
سوپەرمارکێتی بلان بازاڕ,Blann Bazar,,,,"شەقامی مارف چیاوک, قضاء أربيل",أربيل,Erbil,Shop/Retail,shop,36.1923419,43.9675617,,,partial,false,osm
سوبر ماركت - T.H.B - اربيل,,,,,ام ار اف 5 (T.H.B),أربيل,Erbil,Shop/Retail,shop,36.1938689,43.964472,,,partial,false,osm
markety oslo,,,,,32park - jod saydi mazgute jawdat ashade,هەولێر,Erbil,Shop/Retail,shop,36.192287,43.961765,,,partial,false,osm
market itali,,,,,"Erbil, itali 1 nazik mazgwte itali",أربيل,Erbil,Shop/Retail,shop,36.196499,43.965736,,,partial,false,osm
سوپەرمارکێتی هۆڵەند بازاڕ,Holland bazar,,,,قضاء أربيل,أربيل,Erbil,Shop/Retail,shop,36.1949822,43.9682671,,,partial,false,osm
كۆڕەك تيليكۆم,korek telecom,,,,,Erbil,Erbil,Shop/Retail,shop,36.1992017,43.9633807,,,partial,false,osm
مارکێتی دریم ستی,dream city markt,,,,07501737550,Erbil,Erbil,Shop/Retail,shop,36.2052852,43.9721208,,,partial,false,osm
سوبرماركت - لالاف بازار - ستار تور,,,,,دريم ستي -(LOVE BAZAR),أربيل,Erbil,Shop/Retail,shop,36.204299,43.9851468,,,partial,false,osm
فخرالدين 2 صيانة فورية كارتات موبايلات اكسسوارات,,,,,"شەقامی ڕەمزی نافع, قضاء أربيل",أربيل,Erbil,Shop/Retail,shop,36.2093267,43.9810431,,,partial,false,osm
SHNO'S FASHION,,,,,"شەقامی ڕەمزی نافع, قضاء أربيل",أربيل,Erbil,Shop/Retail,shop,36.2093469,43.9809802,,,partial,false,osm
VOGUE boutique CARACAL,,,,,"شەقامی ڕەمزی نافع, قضاء أربيل",أربيل,Erbil,Shop/Retail,shop,36.2095515,43.9805588,,,partial,false,osm
مارکێتی یاراسن,yarasn market,,,,07501737550,Erbil,Erbil,Shop/Retail,shop,36.1851246,44.0604843,,,partial,false,osm
My Style Fashion أقمشة فساتين عبايات خليجية,,,,,"شەقامی ڕەمزی نافع, قضاء أربيل",أربيل,Erbil,Shop/Retail,shop,36.209496,43.9807428,,,partial,false,osm
ماجستك ماركت,Majestic market,,,,"Bakhtiari, قضاء أربيل",أربيل,Erbil,Shop/Retail,shop,36.2060576,43.9870785,,,partial,false,osm
مۆڵی چرا,Chra Mall,,,,"شەقامی گوڵان, قضاء أربيل",أربيل,Erbil,Shop/Retail,shop,36.2075823,43.9858699,,,partial,false,osm
GLAMOUR,,,,,"شەقامی ڕەمزی نافع, قضاء أربيل",أربيل,Erbil,Shop/Retail,shop,36.2083531,43.9835941,,,partial,false,osm
مارکێتی ڤیو,,,,,"شەقامی ڕەمزی نافع, قضاء أربيل",أربيل,Erbil,Shop/Retail,shop,36.2090129,43.9819997,,,partial,false,osm
Celina boutique,,,,,"شەقامی ڕەمزی نافع, قضاء أربيل",أربيل,Erbil,Shop/Retail,shop,36.2092542,43.9812941,,,partial,false,osm
MOTTO kids,,,,,"شەقامی ڕەمزی نافع, قضاء أربيل",أربيل,Erbil,Shop/Retail,shop,36.2092543,43.981253,,,partial,false,osm
شركة قصر الايسر للالكترونيات,ACER PALACE ELECTRONICS,,,,"شەقامی بەختیاری, قضاء أربيل",أربيل,Erbil,Shop/Retail,shop,36.2075866,43.9872358,,,partial,false,osm
خياطة گۆران,Goran Tailor,,,,قضاء أربيل,أربيل,Erbil,Shop/Retail,shop,36.2062105,43.9867993,,,partial,false,osm
سوبر ماركت - ماجستك - بختياري,,,,,بختياري - دو سايد,أربيل,Erbil,Shop/Retail,shop,36.2062467,43.987015,,,partial,false,osm
مول - كارفور زاكا - بختياري,,,,,دو سايد بختياري مقابل وزيران -(كارفور),أربيل,Erbil,Shop/Retail,shop,36.2077439,43.9871776,,,partial,false,osm
سوبر ماركت - فيو ماركت - دو سايد بارك فيو,,,,,بارك فيو -(فيو ماركت),أربيل,Erbil,Shop/Retail,shop,36.208915,43.982045,,,partial,false,osm
FastPay Booth - View Market,,,,,Erbil - ParkView - View Market,أربيل,Erbil,Shop/Retail,shop,36.20878,43.98218,,,partial,false,osm
Business Class Company,,,,,شەقامی گوڵان,أربيل,Erbil,Shop/Retail,shop,36.2069599,43.9849583,,,partial,false,osm
كود جويس سوبر ماركيت,Good Choice Supermarket,,https://qaisary.com/,,"طريق 100 متر, قضاء أربيل",أربيل,Erbil,Shop/Retail,shop,36.2171734,43.9866541,,,partial,false,osm
ناز ناز,,,,,قضاء أربيل,أربيل,Erbil,Shop/Retail,shop,36.2163529,43.9873012,,,partial,false,osm
سوبر ماركت - كود جويز سي ار سفن - ناز ناز,,,,,ناز ناز,أربيل,Erbil,Shop/Retail,shop,36.2171383,43.9868933,,,partial,false,osm
مارکێت ئەرین,Market arin,,,,شەقامی هاشم عەبدوڵڵا ٢١٦-٤٧,Erbil,Erbil,Shop/Retail,shop,36.2121898,43.9821856,,,partial,false,osm
مارکێتی سارا,Minimarket Sara,,,,قضاء أربيل,أربيل,Erbil,Shop/Retail,shop,36.2342515,43.9866204,,,partial,false,osm
نورا,,,,,قضاء أربيل,أربيل,Erbil,Shop/Retail,shop,36.2348397,43.9864822,,,partial,false,osm
تالين ماركيت,,,,,قضاء أربيل,أربيل,Erbil,Shop/Retail,shop,36.2358803,43.9863701,,,partial,false,osm
مارکێتی ئارام,,,,,قضاء أربيل,أربيل,Erbil,Shop/Retail,shop,36.2375639,43.9858848,,,partial,false,osm
لولو,,,,,قضاء أربيل,أربيل,Erbil,Shop/Retail,shop,36.2328272,43.9869822,,,partial,false,osm
اشتي سپي,,,,,قضاء أربيل,أربيل,Erbil,Shop/Retail,shop,36.2354859,43.9872304,,,partial,false,osm
توب شوب,,,,,قضاء أربيل,أربيل,Erbil,Shop/Retail,shop,36.2335361,43.9876071,,,partial,false,osm
توب شوب,,,,,قضاء أربيل,أربيل,Erbil,Shop/Retail,shop,36.2336082,43.9876106,,,partial,false,osm
مارکێتی لۆرد,,,,,قضاء أربيل,أربيل,Erbil,Shop/Retail,shop,36.2374766,43.9861018,,,partial,false,osm
ارام,,,,,قضاء أربيل,أربيل,Erbil,Shop/Retail,shop,36.2376359,43.9858819,,,partial,false,osm
تالين,,,,,قضاء أربيل,أربيل,Erbil,Shop/Retail,shop,36.2359477,43.9863584,,,partial,false,osm
market nwra,,,,,anakawa barambar peshanagay sayara,عنكاوا,Erbil,Shop/Retail,shop,36.234818,43.986481,,,partial,false,osm
روتانا ماركيت,,,,,قضاء أربيل,أربيل,Erbil,Shop/Retail,shop,36.2408609,43.9858168,,,partial,false,osm
زيد,,,,,قضاء أربيل,أربيل,Erbil,Shop/Retail,shop,36.2406152,43.9839295,,,partial,false,osm
دلزار,,,,,قضاء أربيل,أربيل,Erbil,Shop/Retail,shop,36.241512,43.9846447,,,partial,false,osm
ماريان,,,,,قضاء أربيل,أربيل,Erbil,Shop/Retail,shop,36.2399561,43.9835814,,,partial,false,osm
ابو ميرون,,,,,قضاء أربيل,أربيل,Erbil,Shop/Retail,shop,36.2431396,43.9871113,,,partial,false,osm
ئاڤا,,,,,قضاء أربيل,أربيل,Erbil,Shop/Retail,shop,36.2390452,43.9831866,,,partial,false,osm
باوکی ساڤیۆ,,,,,قضاء أربيل,أربيل,Erbil,Shop/Retail,shop,36.24423,43.9854439,,,partial,false,osm
ايكال,,,,,قضاء أربيل,أربيل,Erbil,Shop/Retail,shop,36.2414308,43.9855687,,,partial,false,osm
روتانا,,,,,قضاء أربيل,أربيل,Erbil,Shop/Retail,shop,36.2408818,43.9858197,,,partial,false,osm
سعر الذهبي,,,,,قضاء أربيل,أربيل,Erbil,Shop/Retail,shop,36.2437288,43.9843664,,,partial,false,osm
جوهرة بغداد,,,,,قضاء أربيل,أربيل,Erbil,Shop/Retail,shop,36.240837,43.9837137,,,partial,false,osm
هاكــان,,,,,قضاء أربيل,أربيل,Erbil,Shop/Retail,shop,36.2433179,43.9846758,,,partial,false,osm
koshky pety,,,,,ankawa- nzek ankawa mall,عنكاوا,Erbil,Shop/Retail,shop,36.240093,43.986801,,,partial,false,osm
market rotana,,,,,ankawa 108 jaday asaysh,عنكاوا,Erbil,Shop/Retail,shop,36.240795,43.985882,,,partial,false,osm
هولاند بازار 8,Holland Bazar 8,,,,قضاء أربيل,أربيل,Erbil,Shop/Retail,shop,36.2046656,43.9916391,,,partial,false,osm
ضوء القمر,moon light,,,,قضاء أربيل,أربيل,Erbil,Shop/Retail,shop,36.2044439,43.9901695,,,partial,false,osm
قصاب حلب,Aleppo Butcher,,,,قضاء أربيل,أربيل,Erbil,Shop/Retail,shop,36.2042563,43.9896683,,,partial,false,osm
بازاڕی تورکی بۆ گۆشـت و مریشک,,,,,قضاء أربيل,أربيل,Erbil,Shop/Retail,shop,36.2035008,43.9912283,,,partial,false,osm
مارکیت بهاران,baharan market,,,,قضاء أربيل,أربيل,Erbil,Shop/Retail,shop,36.2024524,43.9921396,,,partial,false,osm
nawand phone,,,,,Erbil- baxtyre - nazik hollnd bazar,أربيل,Erbil,Shop/Retail,shop,36.204449,43.991074,,,partial,false,osm
jan market,,,,,bakhtiari - nazik shahid kojar,أربيل,Erbil,Shop/Retail,shop,36.2051282,43.9931173,,,partial,false,osm
mwhandes muhamad,,,,,baxtyre- holland bazar - nzik,أربيل,Erbil,Shop/Retail,shop,36.204426,43.990787,,,partial,false,osm
hallo phone,,,,,baxtyre - nazik tantuni fresh,أربيل,Erbil,Shop/Retail,shop,36.204327,43.990219,,,partial,false,osm
darye darbaz,,,,,"baxtyre,, blan bazar",أربيل,Erbil,Shop/Retail,shop,36.203903,43.990532,,,partial,false,osm
Sedra Phone,,,,,,أربيل,Erbil,Shop/Retail,shop,36.2050247,43.9923527,,,partial,false,osm
Jegr Jalal Company,,,,,قضاء أربيل,أربيل,Erbil,Shop/Retail,shop,36.20072,43.9953798,,,partial,false,osm
ماركيتي سوران,Soran Market,,,,,Erbil,Erbil,Shop/Retail,shop,36.1982852,44.007315,,,partial,false,osm
Danyal phone,,,,,tayrawa - shr3 twba,أربيل,Erbil,Shop/Retail,shop,36.198135,44.002964,,,partial,false,osm
Market naeab,,,,,terawa,أربيل,Erbil,Shop/Retail,shop,36.197974,44.005251,,,partial,false,osm
H&H,,,,,قضاء أربيل,أربيل,Erbil,Shop/Retail,shop,36.1945094,44.0102351,,,partial,false,osm
دۆلار سنتر,dolar center,,,,30 matri,Erbil,Erbil,Shop/Retail,shop,36.198342,44.0093202,,,partial,false,osm
مارکێتی دڵشاد,Dlshad Market,,,,قضاء أربيل,أربيل,Erbil,Shop/Retail,shop,36.1989088,44.0027903,,,partial,false,osm
بینای پلە غەریبە,bazare Pla Xareba,,,,,Erbil,Erbil,Shop/Retail,shop,36.1996231,44.0073396,,,partial,false,osm
Shalyar Store,,,,,Barmbar Wazaraty Dad,أربيل,Erbil,Shop/Retail,shop,36.202789,44.001144,,,partial,false,osm
شركة الوطني الكترونيات وكيل شركة سامسونك,,,,,قضاء أربيل,أربيل,Erbil,Shop/Retail,shop,36.2034483,44.0074336,,,partial,false,osm
اقمشة داو,kutaky daw,,,,شارع 60,Erbil,Erbil,Shop/Retail,shop,36.2031,44.0077873,,,partial,false,osm
تيم مارت,TEAMMART,,https://team-mart.com/,info@team-mart.com,قضاء أربيل,أربيل,Erbil,Shop/Retail,shop,36.2079422,43.9912387,,,partial,false,osm
market saman,,,,,shorsh,أربيل,Erbil,Shop/Retail,shop,36.201332,44.020725,,,partial,false,osm
ئینار بۆ جلوبەرگی کوردی ئافرەتان,Yanar boutique,,,,قضاء أربيل,أربيل,Erbil,Shop/Retail,shop,36.2109526,43.9922588,,,partial,false,osm
يه نار بو جلوبه رگى كوردى ئافره تان,yanar botique,,,,قضاء أربيل,أربيل,Erbil,Shop/Retail,shop,36.2110502,43.9922244,,,partial,false,osm
مارکێتی سویس,Swiss Market,,,,قضاء أربيل,أربيل,Erbil,Shop/Retail,shop,36.2115059,43.9908291,,,partial,false,osm
zeen market,,,,,baxtyre nazik temar,أربيل,Erbil,Shop/Retail,shop,36.207844,43.990868,,,partial,false,osm
Holland Market,,,,,,Erbil,Erbil,Shop/Retail,shop,36.2116307,43.9913026,,,partial,false,osm
ئای سەنتەر,iCenter,,,,"شەقامی عەنکاوە, قضاء أربيل",أربيل,Erbil,Shop/Retail,shop,36.2085208,43.9978103,,,partial,false,osm
Eye Tech,,,,,"Qadam Kher, قضاء أربيل",أربيل,Erbil,Shop/Retail,shop,36.2066251,43.9980103,,,partial,false,osm
مول - كارفور ماركت - عينكاوة مول,,,,,عينكاوة مول 108 (كارفور),أربيل,Erbil,Shop/Retail,shop,36.20645,43.9979567,,,partial,false,osm
ICenter,,,,,,أربيل,Erbil,Shop/Retail,shop,36.2078589,43.9983225,,,partial,false,osm
One center,,,,,,أربيل,Erbil,Shop/Retail,shop,36.2063415,43.9960663,,,partial,false,osm
kara market baxtyare,kara market,,,,07501737550,Erbil,Erbil,Shop/Retail,shop,36.2085347,43.9980034,,,partial,false,osm
مول كولان,Gulan mall,,http://Www.gulanmall.com,,شەقامی گوڵان,Erbil,Erbil,Shop/Retail,shop,36.2138638,43.9926794,,,partial,false,osm
Galleria mol,Galleria Mall,,,,"Gulan Road, قضاء أربيل",أربيل,Erbil,Shop/Retail,shop,36.2156264,43.9986978,,,partial,false,osm
Aram Mobile,,,,,,أربيل,Erbil,Shop/Retail,shop,36.201616,44.0355661,,,partial,false,osm
اودين فيب,oden vape,,,,"شارع كولان, قضاء أربيل",أربيل,Erbil,Shop/Retail,shop,36.2135953,43.9946901,,,partial,false,osm
تيم مارت,TEAMMART,,https://team-mart.com/,,قضاء أربيل,أربيل,Erbil,Shop/Retail,shop,36.2109423,44.0063429,,,partial,false,osm
Sawa Market,,,,,"56, 217-70, قضاء أربيل",أربيل,Erbil,Shop/Retail,shop,36.2107866,44.0059606,,,partial,false,osm
محل و مخزن كارگو,,,,,قضاء أربيل,أربيل,Erbil,Shop/Retail,shop,36.2065311,44.0066615,,,partial,false,osm
مارکێتی پاندا,Panda Market,,,,"شەقامی کۆنی بەحرکە, قضاء أربيل",أربيل,Erbil,Shop/Retail,shop,36.2082023,44.0103492,,,partial,false,osm
مارکیتی جیھاد,Market Jihad,,,,قضاء أربيل,أربيل,Erbil,Shop/Retail,shop,36.2059967,44.0086291,,,partial,false,osm
کەی مارکێت,Kmarket,,,,"شەقامی کۆنی بەحرکە, قضاء أربيل",أربيل,Erbil,Shop/Retail,shop,36.2112338,44.0104916,,,partial,false,osm
market buxara,,,,,hawlir nusaran nzik mzgawte buxra,أربيل,Erbil,Shop/Retail,shop,36.210793,44.009445,,,partial,false,osm
market wshear,,,,,jwtsaedy baharkay nzik saidalyay botan,أربيل,Erbil,Shop/Retail,shop,36.210884,44.010471,,,partial,false,osm
سوبرماركت - لالاف بازار - كوارترا,,,,,شارع ال40 مقابل صوفيا مول (لالاف بزار),أربيل,Erbil,Shop/Retail,shop,36.2160379,44.0038245,,,partial,false,osm
مارکێت,,,,,قضاء أربيل,أربيل,Erbil,Shop/Retail,shop,36.212432,44.0079582,,,partial,false,osm
Market Ryaz,,,,,mstawfy,أربيل,Erbil,Shop/Retail,shop,36.195854,44.016422,,,partial,false,osm
ياپی ئاسهێر مارکێت,Yapi asher market,,,,قضاء أربيل,أربيل,Erbil,Shop/Retail,shop,36.1984189,44.0242583,,,partial,false,osm
Azhey supermarket,,,,,"60 Meter road, قضاء أربيل",أربيل,Erbil,Shop/Retail,shop,36.2033504,44.0144079,,,partial,false,osm
Mr Price,Mr Price,,,,"شەقامی کوردستان, شارۆچکەی ناوەندیی هەولێر",هەولێر,Erbil,Shop/Retail,shop,36.2022171,44.0185963,,,partial,false,osm
بازاڕگای مەرعی,,,,,"شەقامی کوردستان, شارۆچکەی ناوەندیی هەولێر",هەولێر,Erbil,Shop/Retail,shop,36.2026341,44.0172769,,,partial,false,osm
مينيونز بيبي كيدس,minions-kids-baby,,,,قضاء أربيل,أربيل,Erbil,Shop/Retail,shop,36.2020379,44.0199585,,,partial,false,osm
Ailand Fashion,,,,,قضاء أربيل,أربيل,Erbil,Shop/Retail,shop,36.2022015,44.0184164,,,partial,false,osm
پۆشاکی ئایلاند,Ailand,,,,"شەقامی کوردستان, قضاء أربيل",أربيل,Erbil,Shop/Retail,shop,36.2021916,44.0188557,,,partial,false,osm
مول - كارفور رويال -  شارع 60,,,,,شارع ال60-رويالمول مقابل جامع جليل الخياط (كارفور رويال),أربيل,Erbil,Shop/Retail,shop,36.2023,44.0203367,,,partial,false,osm
کۆمپانیای زێری شێخ بزێنی,Zeree shekh bzenee company,,,,,Erbil,Erbil,Shop/Retail,shop,36.2029079,44.0143596,,,partial,false,osm
jehane mobile,,,,,shoresh shaqame 7adedu xashab nezek shaqame 60 matri,أربيل,Erbil,Shop/Retail,shop,36.202301,44.018715,,,partial,false,osm
مارکێتی ئەحمەد,,,,,قضاء أربيل,أربيل,Erbil,Shop/Retail,shop,36.2020798,44.027012,,,partial,false,osm
مارکێتی مەدینە,Madina Market,,,,قضاء أربيل,أربيل,Erbil,Shop/Retail,shop,36.2016435,44.0260478,,,partial,false,osm
مارکێتی کانی,,,,,قضاء أربيل,أربيل,Erbil,Shop/Retail,shop,36.2016731,44.0262393,,,partial,false,osm
shkar,,,,,shoresh nezek royal mall,أربيل,Erbil,Shop/Retail,shop,36.204834,44.023453,,,partial,false,osm
سوبرمارکیت دانیر2(DANEIR2 supermarket),,,,,"Holy Zard, قضاء أربيل",أربيل,Erbil,Shop/Retail,shop,36.195597,44.0289143,,,partial,false,osm
سوبرماركيت برايان,Brayan Supermarket,,,,Holy Zard,Erbil,Erbil,Shop/Retail,shop,36.1973202,44.0396809,,,partial,false,osm
کۆمپانیایی ڕۆیاڵ,,,,,شارۆچکەی ناوەندیی هەولێر,هەولێر,Erbil,Shop/Retail,shop,36.1925384,44.0352528,,,partial,false,osm
market karkuk,,,,,brayate 40 matre,أربيل,Erbil,Shop/Retail,shop,36.1972519,44.0361677,,,partial,false,osm
مارکێتی حاجی باپیر,,,,,قضاء أربيل,أربيل,Erbil,Shop/Retail,shop,36.2033052,44.0298134,,,partial,false,osm
مركز الهدايا,,,,,,Erbil,Erbil,Shop/Retail,shop,36.2006479,44.0310673,,,partial,false,osm
تيم مارت,TEAMMART,,https://team-mart.com/,,"شەقامی برایەتی, قضاء أربيل",أربيل,Erbil,Shop/Retail,shop,36.2012769,44.0318559,,,partial,false,osm
تيم مارت,TEAMMART,,https://team-mart.com/,,,Erbil,Erbil,Shop/Retail,shop,36.1993676,44.0271943,,,partial,false,osm
سوپەرمارکێتی کۆک,Aya Supermarket,,,,قضاء أربيل,أربيل,Erbil,Shop/Retail,shop,36.2029346,44.0354273,,,partial,false,osm
سوپەرمارکێتی ئایە,Aya supermarket,,,,"شەقامی برایەتی, قضاء أربيل",أربيل,Erbil,Shop/Retail,shop,36.2028564,44.0356775,,,partial,false,osm
Lujain,Lujain,,,,قضاء أربيل,أربيل,Erbil,Shop/Retail,shop,36.2028019,44.0352226,,,partial,false,osm
Market wezha,,,,,barayti near Parma park barayti,أربيل,Erbil,Shop/Retail,shop,36.201195,44.035915,,,partial,false,osm
HEMN MARKET,,,,,brayate xwar super markety kok nzik sjni a7das,أربيل,Erbil,Shop/Retail,shop,36.204086,44.040165,,,partial,false,osm
lade market,,,,,brayate 40 matre,أربيل,Erbil,Shop/Retail,shop,36.19973,44.035957,,,partial,false,osm
مارکێتی سامان شێخانی,,,,,"جادەی سورچیان, قضاء أربيل",أربيل,Erbil,Shop/Retail,shop,36.2064734,44.0147583,,,partial,false,osm
وەستا فەرمان,,,,,"شەقامی کارۆخ, قضاء أربيل",أربيل,Erbil,Shop/Retail,shop,36.2104619,44.0156393,,,partial,false,osm
teammart,,,,,قضاء أربيل,أربيل,Erbil,Shop/Retail,shop,36.2089085,44.0200388,,,partial,false,osm
الجندول  لحم بعجين,,,,,,Erbil,Erbil,Shop/Retail,shop,36.2071667,44.0257292,,,partial,false,osm
نوتلا كريب,,,,,,Erbil,Erbil,Shop/Retail,shop,36.2063034,44.0248226,,,partial,false,osm
مشتل نيشتمان,,,,,قضاء أربيل,أربيل,Erbil,Shop/Retail,shop,36.2075002,44.0225526,,,partial,false,osm
Business Class Company,,,,,permam street,أربيل,Erbil,Shop/Retail,shop,36.2083308,44.026008,,,partial,false,osm
ماركيت ناز ناز,,,,,قضاء أربيل,أربيل,Erbil,Shop/Retail,shop,36.2138899,44.0144856,,,partial,false,osm
ماركيت عبدالله,,,,,قضاء أربيل,أربيل,Erbil,Shop/Retail,shop,36.21388,44.0142884,,,partial,false,osm
sea phone,,,,,garaki ari nezek qutabxanai halgwrd,أربيل,Erbil,Shop/Retail,shop,36.214634,44.019672,,,partial,false,osm
market rozh halat,,,,,garaki ari nezek banki jihan,أربيل,Erbil,Shop/Retail,shop,36.217201,44.021408,,,partial,false,osm
GEOX Respira,,,,,Erbil - Pirmam Road,Erbil,Erbil,Shop/Retail,shop,36.2109175,44.0290987,,,partial,false,osm
سوپەرمارکێتی تودەی,today super market,,,,قضاء أربيل,أربيل,Erbil,Shop/Retail,shop,36.2087286,44.0348448,,,partial,false,osm
Happy Day SuperMarket - سوپەرماڕكێتی هەپی دەی,Happy Day Supermarket,,,,"40 Meter Road, قضاء أربيل",أربيل,Erbil,Shop/Retail,shop,36.2097703,44.0355992,,,partial,false,osm
market hemn,,,,,shoresh barambar nade brusk,أربيل,Erbil,Shop/Retail,shop,36.216049,44.027752,,,partial,false,osm
تیم مارت,Teammart,,https://team-mart.com/,info@team-mart.com,"شەقامی سەرکەوتن, شارۆچکەی ناوەندیی هەولێر",هەولێر,Erbil,Shop/Retail,shop,36.2111745,44.0399865,,,partial,false,osm
مه روان,,,,,قضاء أربيل,أربيل,Erbil,Shop/Retail,shop,36.2091245,44.036609,,,partial,false,osm
كۆماری,,,,,قضاء أربيل,أربيل,Erbil,Shop/Retail,shop,36.2097144,44.0381604,,,partial,false,osm
froshgai dana,,,,,7ay shurta barambar motel kanar,أربيل,Erbil,Shop/Retail,shop,36.210148,44.038265,,,partial,false,osm
market shahan,,,,,40 matri nezek flkai 7ay shurta,أربيل,Erbil,Shop/Retail,shop,36.207783,44.03587,,,partial,false,osm
shweny tareq,,,,,7ay shurta nezek teammart,أربيل,Erbil,Shop/Retail,shop,36.211395,44.03727,,,partial,false,osm
Darin Building - Shop,,,,,,أربيل,Erbil,Shop/Retail,shop,36.206476,44.0357116,,,partial,false,osm
سوز ماركت,show market,,,,,Erbil,Erbil,Shop/Retail,shop,36.2122004,44.0301658,,,partial,false,osm
كاروخ ماركیت,Karokh Market,,,,,Erbil,Erbil,Shop/Retail,shop,36.2172662,44.0322312,,,partial,false,osm
شورش ماركيت,,,,,قضاء أربيل,أربيل,Erbil,Shop/Retail,shop,36.213656,44.0310858,,,partial,false,osm
مارکێتی گوڵان,,,,,"شەقامی گوڵان, قضاء أربيل",أربيل,Erbil,Shop/Retail,shop,36.2172858,44.0284519,,,partial,false,osm
Matin Market,,,,,,Erbil,Erbil,Shop/Retail,shop,36.2179036,44.0275415,,,partial,false,osm
گۆڵد مارکێت,gold market,,https://www.instagram.com/goldmarket24,marketgold9@gmail.com,کوێستان,Erbil,Erbil,Shop/Retail,shop,36.2178938,44.0295888,,,partial,false,osm
سوبر ماركت - شو ماركت 2 - طريق شورش,,,,,شارع شورش -(شو ماركت),أربيل,Erbil,Shop/Retail,shop,36.21225,44.0302683,,,partial,false,osm
shorsh market,,,,,shorash,أربيل,Erbil,Shop/Retail,shop,36.213512,44.031216,,,partial,false,osm
farman mobile,,,,,shorsh - qadseya,أربيل,Erbil,Shop/Retail,shop,36.218185,44.029625,,,partial,false,osm
مارکێتی هەپی دەی,,,,,قضاء أربيل,أربيل,Erbil,Shop/Retail,shop,36.2147128,44.0344261,,,partial,false,osm
ئاسؤ,,,,,,Erbil,Erbil,Shop/Retail,shop,36.2133353,44.0379937,,,partial,false,osm
سوبرسعر2,,,,,قضاء أربيل,أربيل,Erbil,Shop/Retail,shop,36.2246497,43.9920297,,,partial,false,osm
گوڤنةند,,,,,قضاء أربيل,أربيل,Erbil,Shop/Retail,shop,36.2195464,43.9936881,,,partial,false,osm
كنعان,,,,,قضاء أربيل,أربيل,Erbil,Shop/Retail,shop,36.2185284,43.9938928,,,partial,false,osm
تيم مارت,TEAMMART,,https://team-mart.com/,,قضاء أربيل,أربيل,Erbil,Shop/Retail,shop,36.2224046,43.9904098,,,partial,false,osm
DNZ Market,,,,,"100 M Road Access, قضاء أربيل",أربيل,Erbil,Shop/Retail,shop,36.222021,43.994515,,,partial,false,osm
BAZAR SHAR,,,,,"شەقامی پێشەوا قازی, قضاء أربيل",أربيل,Erbil,Shop/Retail,shop,36.221732,43.9947745,,,partial,false,osm
mobily asan,,,,,kurani ankawa nzik mzgawty qazimhamad,أربيل,Erbil,Shop/Retail,shop,36.219257,43.994404,,,partial,false,osm
شهبا ستور,Shahba Store,,,,قضاء أربيل,أربيل,Erbil,Shop/Retail,shop,36.2298788,43.9928076,,,partial,false,osm
عمو دلير,,,,,قضاء أربيل,أربيل,Erbil,Shop/Retail,shop,36.2299196,43.9942007,,,partial,false,osm
عنكاوه ٤ تيممارت,Ankawa4 - TeamMart,,,,"Ainkawa, قضاء أربيل",أربيل,Erbil,Shop/Retail,shop,36.2260668,43.9921509,,,partial,false,osm
هيلين ماركيت,Hba pharmacy,,,,قضاء أربيل,أربيل,Erbil,Shop/Retail,shop,36.2298281,43.9922868,,,partial,false,osm
نةمام,,,,,قضاء أربيل,أربيل,Erbil,Shop/Retail,shop,36.2251678,43.990495,,,partial,false,osm
عالم اللحوم,,,,,قضاء أربيل,أربيل,Erbil,Shop/Retail,shop,36.2298162,43.9921388,,,partial,false,osm
خيزانيكي بةختةوةر,,,,,"شەقامی کانی, قضاء أربيل",أربيل,Erbil,Shop/Retail,shop,36.2307417,43.9903247,,,partial,false,osm
برایـان,,,,,قضاء أربيل,أربيل,Erbil,Shop/Retail,shop,36.2284295,43.9913198,,,partial,false,osm
رودان ماركيت,,,,,قضاء أربيل,أربيل,Erbil,Shop/Retail,shop,36.2312991,43.9878304,,,partial,false,osm
ايليا,,,,,قضاء أربيل,أربيل,Erbil,Shop/Retail,shop,36.2299924,43.9942179,,,partial,false,osm
بەڵێن,,,,,قضاء أربيل,أربيل,Erbil,Shop/Retail,shop,36.2252999,43.9934554,,,partial,false,osm
baz hokah,,,,,قضاء أربيل,أربيل,Erbil,Shop/Retail,shop,36.2296536,43.9909603,,,partial,false,osm
dalta phone,,,,,ankawa muntaza - barambar hotel ankawa,عنكاوا,Erbil,Shop/Retail,shop,36.230331,43.993782,,,partial,false,osm
Alawail center,,,,,ankawa muntaza,عنكاوا,Erbil,Shop/Retail,shop,36.230282,43.993774,,,partial,false,osm
center phone,,,,,anakawa jaday maryamana,عنكاوا,Erbil,Shop/Retail,shop,36.228832,43.991322,,,partial,false,osm
market Evan,,,,,anakawa- barambar maryamana,عنكاوا,Erbil,Shop/Retail,shop,36.228088,43.991497,,,partial,false,osm
Taimoor 4 mobile,,,,,ankawa muntaza- barambar hotel ankawa,عنكاوا,Erbil,Shop/Retail,shop,36.230331,43.993729,,,partial,false,osm
سوبر ماركت و اسواق,,,,,,Erbil,Erbil,Shop/Retail,shop,36.1715335,44.071789,,,partial,false,osm
center gussen phone,,,,,anakawa- muntaza,عنكاوا,Erbil,Shop/Retail,shop,36.230351,43.993683,,,partial,false,osm
London Phone,,,,,anakawa jaday maryamana,عنكاوا,Erbil,Shop/Retail,shop,36.228733,43.991375,,,partial,false,osm
فلبين ماركيت,,,,,قضاء أربيل,أربيل,Erbil,Shop/Retail,shop,36.2251409,43.9956053,,,partial,false,osm
ريبين ماركيت,,,,,قضاء أربيل,أربيل,Erbil,Shop/Retail,shop,36.2263853,43.9952509,,,partial,false,osm
نةمام,,,,,قضاء أربيل,أربيل,Erbil,Shop/Retail,shop,36.2266735,43.9976686,,,partial,false,osm
فلبين ماركيت,,,,,قضاء أربيل,أربيل,Erbil,Shop/Retail,shop,36.2251356,43.9956129,,,partial,false,osm
دميان,,,,,قضاء أربيل,أربيل,Erbil,Shop/Retail,shop,36.2265285,43.997391,,,partial,false,osm
حاجي,,,,,قضاء أربيل,أربيل,Erbil,Shop/Retail,shop,36.2277062,43.9972187,,,partial,false,osm
MR ماركيت,,,,,قضاء أربيل,أربيل,Erbil,Shop/Retail,shop,36.2314301,43.9979157,,,partial,false,osm
سامويل,,,,,قضاء أربيل,أربيل,Erbil,Shop/Retail,shop,36.2291368,43.9997269,,,partial,false,osm
وسام,,,,,قضاء أربيل,أربيل,Erbil,Shop/Retail,shop,36.2292979,43.9964326,,,partial,false,osm
ايهاب,,,,,,Erbil,Erbil,Shop/Retail,shop,36.2289797,43.9976553,,,partial,false,osm
رایڤن,,,,,قضاء أربيل,أربيل,Erbil,Shop/Retail,shop,36.2283042,43.995949,,,partial,false,osm
چنار,,,,,قضاء أربيل,أربيل,Erbil,Shop/Retail,shop,36.2315828,43.9947048,,,partial,false,osm
تیم مارت - کوێستان,Teammart - Kwestan,,,,Gulan Road,Erbil,Erbil,Shop/Retail,shop,36.2215121,44.0284552,,,partial,false,osm
حكمت,,,,,قضاء أربيل,أربيل,Erbil,Shop/Retail,shop,36.2303585,43.9956773,,,partial,false,osm
MR,,,,,قضاء أربيل,أربيل,Erbil,Shop/Retail,shop,36.231539,43.9979255,,,osm,false,osm
صالون-قشمر,,,https://facebook.com/rudaw,,قضاء أربيل,أربيل,Erbil,Shop/Retail,shop,36.220149,44.010797,,,partial,false,osm
راڤيل,,,,,قضاء أربيل,أربيل,Erbil,Shop/Retail,shop,36.2294045,44.0012121,,,partial,false,osm
express market,,,,,قضاء أربيل,أربيل,Erbil,Shop/Retail,shop,36.227779,44.0052896,,,partial,false,osm
Sahara Market,,,,,"Yazdandokht Street, قضاء أربيل",أربيل,Erbil,Shop/Retail,shop,36.2345273,43.9924128,,,partial,false,osm
Holland Bazaar,,,,,قضاء أربيل,أربيل,Erbil,Shop/Retail,shop,36.2361858,43.9906131,,,partial,false,osm
هولاند ٥,Holland Bazar 5,,,,قضاء أربيل,أربيل,Erbil,Shop/Retail,shop,36.2361441,43.9906459,,,partial,false,osm
Rayan Shop,,,,,قضاء أربيل,أربيل,Erbil,Shop/Retail,shop,36.2322665,43.9889951,,,partial,false,osm
کوخ,,,,,قضاء أربيل,أربيل,Erbil,Shop/Retail,shop,36.2348944,43.993487,,,partial,false,osm
ماركيت سنار,,,,,قضاء أربيل,أربيل,Erbil,Shop/Retail,shop,36.2328754,43.9933205,,,partial,false,osm
سارة2,,,,,قضاء أربيل,أربيل,Erbil,Shop/Retail,shop,36.2323241,43.9890222,,,partial,false,osm
كوباني,,,,,قضاء أربيل,أربيل,Erbil,Shop/Retail,shop,36.2327016,43.9892547,,,partial,false,osm
italian city 2 supermarket,,,,,,Erbil,Erbil,Shop/Retail,shop,36.2437184,44.0465837,,,partial,false,osm
سامسونك,,,,,قضاء أربيل,أربيل,Erbil,Shop/Retail,shop,36.2332526,43.98872,,,partial,false,osm
مارکێتی ئەرکان,,,,,قضاء أربيل,أربيل,Erbil,Shop/Retail,shop,36.2347919,43.9928098,,,partial,false,osm
ماركيت,,,,,قضاء أربيل,أربيل,Erbil,Shop/Retail,shop,36.2355632,43.9940135,,,partial,false,osm
يونيل,,,,,قضاء أربيل,أربيل,Erbil,Shop/Retail,shop,36.2380693,43.9934652,,,partial,false,osm
اينور,,,,,قضاء أربيل,أربيل,Erbil,Shop/Retail,shop,36.2369395,43.9934411,,,partial,false,osm
Akeel phone,,,,,ankawa- muntaza,عنكاوا,Erbil,Shop/Retail,shop,36.233719,43.993092,,,partial,false,osm
AL-Araab Center,,,,,,عنكاوا,Erbil,Shop/Retail,shop,36.233628,43.9930823,,,partial,false,osm
ماكسي مول,Maxi Mall,,,,قضاء أربيل,أربيل,Erbil,Shop/Retail,shop,36.2372095,43.9965458,,,partial,false,osm
بازاڕی,,,,,قضاء أربيل,أربيل,Erbil,Shop/Retail,shop,36.2373404,43.996181,,,partial,false,osm
ماتیلدا,,,,,قضاء أربيل,أربيل,Erbil,Shop/Retail,shop,36.2319687,43.9960156,,,partial,false,osm
سالم,,,,,قضاء أربيل,أربيل,Erbil,Shop/Retail,shop,36.2357592,43.9977546,,,partial,false,osm
چنار,,,,,قضاء أربيل,أربيل,Erbil,Shop/Retail,shop,36.2317011,43.9944877,,,partial,false,osm
جلطة,,,,,قضاء أربيل,أربيل,Erbil,Shop/Retail,shop,36.233645,43.9959967,,,partial,false,osm
ئةنةس,,,,,قضاء أربيل,أربيل,Erbil,Shop/Retail,shop,36.2324762,43.9975729,,,partial,false,osm
شارا,,,,,قضاء أربيل,أربيل,Erbil,Shop/Retail,shop,36.2323895,43.9982647,,,partial,false,osm
شوبان,,,,,قضاء أربيل,أربيل,Erbil,Shop/Retail,shop,36.2316601,44.0004064,,,partial,false,osm
جومانة,,,,,قضاء أربيل,أربيل,Erbil,Shop/Retail,shop,36.2340652,43.9980888,,,partial,false,osm
مارکێتی ژیان,,,,,قضاء أربيل,أربيل,Erbil,Shop/Retail,shop,36.2381163,43.9949256,,,partial,false,osm
شارا,,,,,قضاء أربيل,أربيل,Erbil,Shop/Retail,shop,36.2324432,43.9982687,,,partial,false,osm
جلطة,,,,,قضاء أربيل,أربيل,Erbil,Shop/Retail,shop,36.2337184,43.9959972,,,partial,false,osm
ئەنەس,,,,,,Erbil,Erbil,Shop/Retail,shop,36.2325722,43.9975852,,,partial,false,osm
سوبرماركت - كاروان سراي - عينكاوه,,,,,دوسايد عينكاوا قرب فندق كاروان سراي,أربيل,Erbil,Shop/Retail,shop,36.2372117,43.99656,,,partial,false,osm
سوبرماركت - هولند بازار جيت - عينكاوه,,,,,عينكاوة -شارع المنتزة-(هولند جيت),أربيل,Erbil,Shop/Retail,shop,36.2316206,43.994737,,,partial,false,osm
Julie Moda,,,https://www.juliemoda.com/,info@juliemoda.com,"Ankawa, قضاء أربيل",أربيل,Erbil,Shop/Retail,shop,36.2415279,43.9902706,,,partial,false,osm
الشيراك,,,,,قضاء أربيل,أربيل,Erbil,Shop/Retail,shop,36.2385922,43.9894315,,,partial,false,osm
عه مؤ,,,,,قضاء أربيل,أربيل,Erbil,Shop/Retail,shop,36.2431917,43.9882911,,,partial,false,osm
مارکیتی نوئ,,,,,قضاء أربيل,أربيل,Erbil,Shop/Retail,shop,36.2434731,43.9886763,,,partial,false,osm
جالا ماركيت,,,,,قضاء أربيل,أربيل,Erbil,Shop/Retail,shop,36.2420068,43.9892819,,,partial,false,osm
مارکێتی سەلام,,,,,قضاء أربيل,أربيل,Erbil,Shop/Retail,shop,36.2393243,43.9939267,,,partial,false,osm
تیممارت,Teammart,,,,"شەقامی شلاما, شارۆچکەی ناوەندیی هەولێر",هەولێر,Erbil,Shop/Retail,shop,36.2403835,43.9956014,,,partial,false,osm
Z Market,,,,,قضاء أربيل,أربيل,Erbil,Shop/Retail,shop,36.234068,44.0052359,,,partial,false,osm
تيم مارت,TeamMart - Ankawa 3,,,,قضاء أربيل,أربيل,Erbil,Shop/Retail,shop,36.2355312,44.0038577,,,partial,false,osm
ماريانا,,,,,قضاء أربيل,أربيل,Erbil,Shop/Retail,shop,36.2341356,44.0045415,,,partial,false,osm
المجد,,,,,قضاء أربيل,أربيل,Erbil,Shop/Retail,shop,36.2364593,44.0027859,,,partial,false,osm
السدة,,,,,قضاء أربيل,أربيل,Erbil,Shop/Retail,shop,36.2334826,44.0016717,,,partial,false,osm
بوتاني,,,,,قضاء أربيل,أربيل,Erbil,Shop/Retail,shop,36.2345869,44.0066958,,,partial,false,osm
الوردة,,,,,قضاء أربيل,أربيل,Erbil,Shop/Retail,shop,36.2326109,44.0018276,,,partial,false,osm
Dlovan Bazar,,,,,"شەقامی گوڵان, قضاء أربيل",أربيل,Erbil,Shop/Retail,shop,36.2200878,44.0208416,,,partial,false,osm
Hafta Bazar 3 Ankawa,,,,,,Erbil,Erbil,Shop/Retail,shop,36.2263651,44.0179143,,,partial,false,osm
بازاڕی هاوچەرخ,,,,,,Erbil,Erbil,Shop/Retail,shop,36.2263302,44.0180722,,,partial,false,osm
هەفتە بازاڕ ٣,,,,,,هەولێر,Erbil,Shop/Retail,shop,36.2263683,44.0185115,,,partial,false,osm
ماركیت كیفی,kayfi market,,,,کوێستان,Erbil,Erbil,Shop/Retail,shop,36.2189237,44.0308266,,,partial,false,osm
سه ربه ن,sarban,,,,کوێستان,Erbil,Erbil,Shop/Retail,shop,36.2211873,44.0319813,,,partial,false,osm
ماركيتى ريبوار,Rebwar market,,,,,Erbil,Erbil,Shop/Retail,shop,36.2192487,44.0304793,,,partial,false,osm
hawre phone,,,,,kuestan nezek mustashfai welada,أربيل,Erbil,Shop/Retail,shop,36.21928,44.030422,,,partial,false,osm
farhang phone,,,,,tanesht teammart,أربيل,Erbil,Shop/Retail,shop,36.221386,44.027741,,,partial,false,osm
ڤالیو مارکێت,Value supermarket,,,,"Yahya street, قضاء أربيل",أربيل,Erbil,Shop/Retail,shop,36.2451154,43.98733,,,partial,false,osm
تليسان,,,,,قضاء أربيل,أربيل,Erbil,Shop/Retail,shop,36.2451921,43.986507,,,partial,false,osm
مارکیت برانتی,baranati market,,,,ڕێگای گەزنە,Erbil,Erbil,Shop/Retail,shop,36.2586174,43.9770303,,,partial,false,osm
عنكاوه,,,,,قضاء أربيل,أربيل,Erbil,Shop/Retail,shop,36.2447483,43.9912781,,,partial,false,osm
market barakat Erbil,,,,,108 hankawa jaday mashashl,عنكاوا,Erbil,Shop/Retail,shop,36.24522,43.9912,,,partial,false,osm
هلند بازار,Holand Bazar,,,,"Lebanese Village, قضاء أربيل",أربيل,Erbil,Shop/Retail,shop,36.2574155,44.0113088,,,partial,false,osm
سوبر ماركت - هولند 10 - القرية اللبنانية,,,,,بالقرية اللبنانية -(هولند),أربيل,Erbil,Shop/Retail,shop,36.257265,44.0113767,,,partial,false,osm
Holand Bazar 12,,,,,قضاء أربيل,أربيل,Erbil,Shop/Retail,shop,36.2600061,43.9934158,,,partial,false,osm
مارکێتی ئەحمەد,,,,,شارۆچکەی ناوەندیی هەولێر,هەولێر,Erbil,Shop/Retail,shop,36.1238529,44.0549869,,,partial,false,osm
سوبر ماركت - هولند بازار 12 - هرشم مول,,,,,هرشم مول (بحركه القديمة ) (هولند),أربيل,Erbil,Shop/Retail,shop,36.2604533,43.99391,,,partial,false,osm
نۆبڵ مارکێت,nobl market,,,,07501737550,Erbil,Erbil,Shop/Retail,shop,36.2598683,43.9971664,,,partial,false,osm
ماركيت ديرك,Dêrik Market,,,,,Erbil,Erbil,Shop/Retail,shop,36.2728487,43.9891076,,,partial,false,osm
ماركيت,Market,,,,,Erbil,Erbil,Shop/Retail,shop,36.272392,43.9913943,,,partial,false,osm
سوپەرمارکێتی مەم,,,,,"جووت سایدی دارەتوو, شارۆچکەی ناوەندیی هەولێر",هەولێر,Erbil,Shop/Retail,shop,36.1265636,44.0419037,,,partial,false,osm
پێشانگای هیمداد,,,,,شارۆچکەی ناوەندیی هەولێر,هەولێر,Erbil,Shop/Retail,shop,36.1251359,44.0459337,,,partial,false,osm
مارکێتی هێمن,hemn market,,,,شارۆچکەی ناوەندیی هەولێر,هەولێر,Erbil,Shop/Retail,shop,36.1209488,44.0528765,,,partial,false,osm
نازە,,,,,شارۆچکەی ناوەندیی هەولێر,هەولێر,Erbil,Shop/Retail,shop,36.1239601,44.0493158,,,partial,false,osm
mobile saman,,,,,Erbil daratw nzek mzgawte nawzad shakr,هەولێر,Erbil,Shop/Retail,shop,36.125458,44.050018,,,partial,false,osm
market ryaz,,,,,zhin,هەولێر,Erbil,Shop/Retail,shop,36.124039,44.049236,,,partial,false,osm
market ezadin,,,,,daratw nzek mzgawte nawzad shakr,هەولێر,Erbil,Shop/Retail,shop,36.12616,44.047474,,,partial,false,osm
مۆبایلی ڕەوێن,,,,,awler daratw,هەولێر,Erbil,Shop/Retail,shop,36.118938,44.065868,,,partial,false,osm
مۆبایلی سوارە,,,,,شارۆچکەی ناوەندیی هەولێر,هەولێر,Erbil,Shop/Retail,shop,36.1190739,44.0658993,,,partial,false,osm
media,,,,,,Erbil,Erbil,Shop/Retail,shop,36.1570622,44.046786,,,partial,false,osm
مارکێتی دیدار,,,,,,أربيل,Erbil,Shop/Retail,shop,36.1243361,44.0595824,,,partial,false,osm
مارکێتی میر,,,,,شارۆچکەی ناوەندیی هەولێر,هەولێر,Erbil,Shop/Retail,shop,36.1218848,44.0582105,,,partial,false,osm
تیممارت,,,,,شارۆچکەی ناوەندیی هەولێر,هەولێر,Erbil,Shop/Retail,shop,36.1225329,44.0609293,,,partial,false,osm
مارکێتی فەرمان,Market farman,,,,شارۆچکەی ناوەندیی هەولێر,هەولێر,Erbil,Shop/Retail,shop,36.1303449,44.0419937,,,partial,false,osm
مارکێتی ڕۆتەردام,,,,,شارۆچکەی ناوەندیی هەولێر,هەولێر,Erbil,Shop/Retail,shop,36.1310498,44.0429441,,,partial,false,osm
مارکێتی هەڵمەت,Halmat market,,,,شارۆچکەی ناوەندیی هەولێر,هەولێر,Erbil,Shop/Retail,shop,36.1282191,44.0425651,,,partial,false,osm
مارکێتی مامۆستا,,,,,شارۆچکەی ناوەندیی هەولێر,هەولێر,Erbil,Shop/Retail,shop,36.1316126,44.0487253,,,partial,false,osm
دوکانی ئەحمەد,,,,,شارۆچکەی ناوەندیی هەولێر,هەولێر,Erbil,Shop/Retail,shop,36.131208,44.0472787,,,partial,false,osm
فرۆشگای ھاوکار,,,,,قضاء أربيل,أربيل,Erbil,Shop/Retail,shop,36.1362544,44.0403876,,,partial,false,osm
مارکێتی زەیتوون,,,,,,هەولێر,Erbil,Shop/Retail,shop,36.1329222,44.0662838,,,partial,false,osm
مارکێتی زەیتوون,,,,,,هەولێر,Erbil,Shop/Retail,shop,36.1343519,44.0612338,,,partial,false,osm
زيتون بازار,,,,,,Erbil,Erbil,Shop/Retail,shop,36.134452,44.0611518,,,partial,false,osm
بازاڕی تەڕەفرۆشی,,,,,شارۆچکەی ناوەندیی هەولێر,هەولێر,Erbil,Shop/Retail,shop,36.1190137,44.0674275,,,partial,false,osm
تیم مارت,TEAMMART,,https://team-mart.com/,,شارۆچکەی ناوەندیی هەولێر,هەولێر,Erbil,Shop/Retail,shop,36.1183074,44.0683894,,,partial,false,osm
swara phone,,,,,daratw,أربيل,Erbil,Shop/Retail,shop,36.119057,44.07259,,,partial,false,osm
مارکێتی بوخاری ڕۆنبیری,buxare market roshnbire,,,,"07501737550, شەقامی سەعدی گچکە",Erbil,Erbil,Shop/Retail,shop,36.1449181,44.0504492,,,partial,false,osm
تیم مارت - شارەوانی,Teammart-Sharawani,,https://www.team-mart.com/,info@team-mart.com,"شەقامی کاردۆ گەڵاڵی, قضاء أربيل",أربيل,Erbil,Shop/Retail,shop,36.1526449,44.0427109,,,partial,false,osm
مارکێتی نۆبڵ,,,,,"شەقامی سەعدی گچکە, شارۆچکەی ناوەندیی هەولێر",هەولێر,Erbil,Shop/Retail,shop,36.1501499,44.04303,,,partial,false,osm
مارکێتی مامۆستایان,Mamostayan Makret,,,,"شەقامی سەعدی گچکە, شارۆچکەی ناوەندیی هەولێر",هەولێر,Erbil,Shop/Retail,shop,36.1509353,44.0418923,,,partial,false,osm
سوپەرمارکێتی فودلاند,Supermarket Food Land,,,,"343-47, شارۆچکەی ناوەندیی هەولێر",هەولێر,Erbil,Shop/Retail,shop,36.1488724,44.0404531,,,partial,false,osm
market vplus,,,,,92 zanko nzek kwlya qanun,أربيل,Erbil,Shop/Retail,shop,36.152271,44.040413,,,partial,false,osm
market areen,,,,,Erbil sharawani nzik trafic sharawani,أربيل,Erbil,Shop/Retail,shop,36.149937,44.042919,,,partial,false,osm
شەقڵاوە مارکێت,shqlawa market,,,,07501737550,Erbil,Erbil,Shop/Retail,shop,36.1535711,44.0562774,,,partial,false,osm
بازاڕی سۆران,,,,,"شەقامی ١٢٠ مەتری, شارۆچکەی هەولێر",هەولێر,Erbil,Shop/Retail,shop,36.1474798,44.0479668,,,partial,false,osm
