name,name_en,phone,website,email,address,city,governorate,category,subcategory,latitude,longitude,facebook,instagram,data_quality,verified,source
abdulrahman 3yada,,+9647504751456,,,ڕێگای کۆنی کەرکووک,Erbil,Erbil,Healthcare,healthcare,36.1287353,44.0132273,,,real,false,osm
دەرمانخانەی جەرجیر,,+9647504699586,,,,هەولێر,Erbil,Healthcare,healthcare,36.1242071,44.0190949,,,real,false,osm
رسکین,rskin,+9647507461910,,,dwside shadi,Erbil,Erbil,Healthcare,healthcare,36.1572667,43.9791303,,,real,false,osm
PAKY HOSPITAL | نەخۆشخانەی پاکی,,+9647509950007,www.Pakyhospital.com,,شەقامی نەورۆز,أربيل,Erbil,Healthcare,healthcare,36.1706849,43.9789833,,,real,false,osm
دەرمانخانەی ژێنەر,Zhanbar Pharmacy,+9647504626776,,,"شەقامی زوورگەزراو, قضاء أربيل",أربيل,Erbil,Healthcare,healthcare,36.1724678,43.9873072,,,real,false,osm
دکتۆر شێروان رەحمان سولەیمان,Dr. Sherwan Rahman Sulaiman,+9647502027383,,drsherwanshal@gmail.com,"1, 209/10",Erbil,Erbil,Healthcare,healthcare,36.1744654,43.9778603,,,real,false,osm
الدكتورة اريانا خالص,Proximal Clinics,+9647502008001,http://proximalclinics.com,,"شارع القاضي غازي, شارۆچکەی ناوەندی هەولێر",هەولێر,Erbil,Healthcare,healthcare,36.1919528,43.9619464,,,real,false,osm
عيادة تجميل,Laser Clinic Erbil,+9647512121952,,laser.clinic.erbil@hotmail.com,,Erbil,Erbil,Healthcare,healthcare,36.1872837,43.9723328,,,real,false,osm
دەرمانخانەی دەلانی زانکۆ,Dalany Zanko Pharmacy,+9647506254008,https://www.dalany.net/,info@dalany.net,شەقامی پێشەوا قازی,Erbil,Erbil,Healthcare,healthcare,36.1598823,44.0294267,,,real,false,osm
دکتۆر عبدالصبور احمد حسێن,Dr. AbdulSabur Ahmed Husen,+9647503153919,,,,Erbil,Erbil,Healthcare,healthcare,36.1763905,44.0091322,,,real,false,osm
عيادة الدكتور نبز يونس,Dr. Nabaz Younis Clinic,+9647502006868,http://www.drnabaz.com,info@meerpt.com,"Ashal Street, قضاء أربيل",أربيل,Erbil,Healthcare,healthcare,36.1873502,43.9961328,,,real,false,osm
ناوەندەی ئەمریکایی بۆ چاو و تۆڕی چاو,American Eye & Retina Center,+9647500177678,http://Info@aerc-Erbil.com,,"شەقامی سوڵتان موزەفەر, قضاء أربيل",أربيل,Erbil,Healthcare,healthcare,36.1877823,44.0026772,,,real,false,osm
دەرمانخانەی سیگما,sigma pharmacy,+9647503890532,,talibpharma@yahoo.com,"شەقامی ئیسکان, قضاء أربيل",أربيل,Erbil,Healthcare,healthcare,36.177265,44.018841,https://www.facebook.com/sigmapharmacy,,real,false,osm
مدخر ادوية بناز,Banaz Drugstore,+9647508401654,,,,Erbil,Erbil,Healthcare,healthcare,36.1764484,44.0183676,,,real,false,osm
نۆرینگەی د. قانیعە,,+9647501366094,,,"شەقامی جەمال حەیدەری, قضاء أربيل",أربيل,Erbil,Healthcare,healthcare,36.1741641,44.0366995,,,real,false,osm
سەرکەوت خۆشناو,,+9647507483830,,,"PAR Hospital Street, قضاء أربيل",أربيل,Erbil,Healthcare,healthcare,36.1830642,44.0262537,https://www.facebook.com/Dr.Sarkawt.Khoshnaw.Oncologist.Erbil.Kurdistan,,real,false,osm
علی حسین بکر,,+9647504619073,,,قضاء أربيل,أربيل,Erbil,Healthcare,healthcare,36.1830232,44.0262899,,,real,false,osm
صيدلية رةوةز,Rawaz Pharmacy,+9647509659141,,,"185/4/218, 225-35",Erbil,Erbil,Healthcare,healthcare,36.1881643,44.0268852,,,real,false,osm
هاوكار عبدالله كاك أحمد,Dr. Hawkar Abdullah Kak Ahmad,+9647504733522,https://m.facebook.com/Hawkar.A.KakAhmed.ped.surg.andurology/,,طريق أربيل-كوي سنجق,Erbil,Erbil,Healthcare,healthcare,36.1916673,44.0291702,,,real,false,osm
فریاکەوتنی خێرا 122,Emergency center 122,+9647503802007,,,قضاء أربيل,أربيل,Erbil,Healthcare,healthcare,36.1886167,44.0382288,,,real,false,osm
Swedish Rehab Center 2,Swedish Rehab Center,+9647501908804,https://swerehcen.business.site/,swerehcen@gmail.com,طريق ٤٠ متر,Erbil,Erbil,Healthcare,healthcare,36.1883997,44.0360445,,,real,false,osm
د محمد حسين العبيدي,dr mohammed clinic,+9647507227500,,alobaidimohammed2014@gmail.com,قضاء أربيل,أربيل,Erbil,Healthcare,healthcare,36.1882438,44.0390639,,,real,false,osm
د. رێبەر ناظم,D. Rebar Daham,+9647504536719,,,32 park,Erbil,Erbil,Healthcare,healthcare,36.1932255,43.9573463,,,real,false,osm
فيولا فارما,viola pharmacy and cosmatics,+9647503003008,,,"MRF 5 towers, قضاء أربيل",أربيل,Erbil,Healthcare,healthcare,36.193929,43.9646246,,,real,false,osm
ئۆرکا مید کەیر,orca medicare,+9647504261818,http://orca-midecarr.com,info@orca-medicare.com,قضاء أربيل,أربيل,Erbil,Healthcare,healthcare,36.1940136,43.9701529,,,real,false,osm
الدكتور وليد سرحان,,+9647750722747,,,,Erbil,Erbil,Healthcare,healthcare,36.206065,43.9876178,,,real,false,osm
BU Clinics,,+9647506190619,,,"شەقامی دانیاڵ قەساب, قضاء أربيل",أربيل,Erbil,Healthcare,healthcare,36.216018,43.9877307,,,real,false,osm
شوقي غزالة,shaqy gazalah,+9647507671125,,,قضاء أربيل,أربيل,Erbil,Healthcare,healthcare,36.1937907,44.0007805,,,real,false,osm
دايت نيوترشن,Diet Nutrition,+9647503701987,https://www.dietnutrition.life/,,"شەقامی سامی شۆڕش, قضاء أربيل",أربيل,Erbil,Healthcare,healthcare,36.2048615,43.9893148,,,real,false,osm
دايت نيوترشن,Diet Nutrition,+9647503701987,https://www.dietnutrition.life/,,"شەقامی سامی شۆڕش, قضاء أربيل",أربيل,Erbil,Healthcare,healthcare,36.2028677,43.992159,,,real,false,osm
دەرمانخانەی سیما,sana pharmacy,+9647509039494,,,"شەقامی پزیشکان, قضاء أربيل",أربيل,Erbil,Healthcare,healthcare,36.1967158,44.0035072,https://www.facebook.com/pharmacy.sana,,real,false,osm
ئومێد کەریم,Omeed Ikram,+9647503190080,,,قضاء أربيل,أربيل,Erbil,Healthcare,healthcare,36.1959433,44.0042327,,,real,false,osm
سرود نزار جرجیس,Srood Nazar Jirjees,+9647511332879,,,قضاء أربيل,أربيل,Erbil,Healthcare,healthcare,36.1949732,44.0051525,,,real,false,osm
کۆمپانیای ( ئەڤێڵ ) .,Avail company .,+9647503257370,,availfordrugs@gmail.com,"12, Pizishkan Street, قضاء أربيل",أربيل,Erbil,Healthcare,healthcare,36.193328,44.0044621,,,real,false,osm
عيادة دكتور ظاهر طاهر گه ردي,,+9647501842202,,,"Salahaddin, قضاء أربيل",أربيل,Erbil,Healthcare,healthcare,36.1925569,44.0018585,,,real,false,osm
دکتۆر هەرمان صابر نانەکەلی,Dr Harman Saber Nanekeli,+9647503577951,http://www.facebook.com/DrHarmanClinic,harman.saber@gmail.com,"Pizishkan Street, قضاء أربيل",أربيل,Erbil,Healthcare,healthcare,36.1945123,44.0059415,,,real,false,osm
دکتۆر ھاوکار عبداللە کاک ئەحمەد,Dr. Hawkar Abdullah Kak Ahmad,+9647504733255,,,"شەقامی پزیشکان, قضاء أربيل",أربيل,Erbil,Healthcare,healthcare,36.1950067,44.0049145,,,real,false,osm
دكتۆرە باران کەمال بەرزنجی,Dr. Baran kamal albarznji,+9647503948600,,,"شەقامی پزیشکان, قضاء أربيل",أربيل,Erbil,Healthcare,healthcare,36.194817,44.0073254,,,real,false,osm
د. عەبدولخالق ئەمین,Dr. Abdulkhaliq Ameen,+9647504011825,,,"شەقامی پزیشکان, قضاء أربيل",أربيل,Erbil,Healthcare,healthcare,36.1969081,44.0034244,,,real,false,osm
هيمن صابر شواني,Hemn Shwany,+9647508254993,,heminshwanient@gmail.com,"شەقامی ئەیوبی, قضاء أربيل",أربيل,Erbil,Healthcare,healthcare,36.1939544,44.0063684,,,real,false,osm
دکتور بهجت توفیق خوشناو,Dr.Bahjat tofeeq xoshnaw,+9647507023407,,,قضاء أربيل,أربيل,Erbil,Healthcare,healthcare,36.1950222,44.0049471,,,real,false,osm
دکتۆر فەیسەڵ,Doctor Faisal,+9647507901300,,,"شەقامی پزیشکان, قضاء أربيل",أربيل,Erbil,Healthcare,healthcare,36.1950865,44.005651,,,real,false,osm
د. حسین ابراهیم طه رواندزی/جراح استشاري,Dr. Husen Ibrahim Taha Rawanduzi,+9647508171532,,husen.i.taha@gmail.com,"25, قضاء أربيل",أربيل,Erbil,Healthcare,healthcare,36.1938303,44.002696,,,real,false,osm
صيدلية زينب,Zaynab pharmacy,+9647503452993,,,"شەقامی پزیشکان, قضاء أربيل",أربيل,Erbil,Healthcare,healthcare,36.1940051,44.0058614,,,real,false,osm
مذخر كةز,Gaz Drug Store,+9647504521875,,gazdrugstory@gmail.com,"قرب شارع الاطباء, قضاء أربيل",أربيل,Erbil,Healthcare,healthcare,36.194164,44.0037497,,,real,false,osm
کۆمپانیای ژیریا بۆ بارزگانی دەرمان,Zhyria pharmaceutical Company,+9647501183355,http://www.zhyria.com,info@zhyria.com,"شەقامی پزیشکان, قضاء أربيل",أربيل,Erbil,Healthcare,healthcare,36.194912,44.0029802,,,real,false,osm
د.عبدالكريم القطان .جراح الاعصاب,Dr.Abdulkarim Alkattan Neurosurgeon,+9647502160964,,dr1kattan@gmail.com,"شەقامی سەلاحەددین, قضاء أربيل",أربيل,Erbil,Healthcare,healthcare,36.1923006,44.0028951,,,real,false,osm
مختبر هاى لاب,Hi Lab,+9647507320332,,,قضاء أربيل,أربيل,Erbil,Healthcare,healthcare,36.1952358,44.0047656,,,real,false,osm
دكتور محمد الخطيب,Dr. Mohammed Al-Khatib,+9647504258880,,,"107-11, قضاء أربيل",أربيل,Erbil,Healthcare,healthcare,36.1942586,44.0063477,,,real,false,osm
دکتورە الاء,,+9647503264595,,,شەقامی پزیشکان,Erbil,Erbil,Healthcare,healthcare,36.1942557,44.005092,,,real,false,osm
صيدلية فارميدينت,pharmydent pharmacy,+9647507938185,,pharmadentpharmacy@gmail.com,"شەقامی ئاراس, قضاء أربيل",أربيل,Erbil,Healthcare,healthcare,36.1942401,44.0075539,,,real,false,osm
صيدلية شورش فارما - طريق شقلاوة (بجانب باب الحارة ٢),Shorsh pharma - Shaqlawa St. (Behind Bab alhara 2),+9647506225200,,,Shaqlawa Road,Erbil,Erbil,Healthcare,healthcare,36.2053403,44.0241573,,,real,false,osm
دكتور دلوفان لفحص سونار - درجة اولى,Dr Dlovan for ultra sound examing,+9647503222329,,,,Erbil,Erbil,Healthcare,healthcare,36.1926288,44.0334555,,,real,false,osm
سەنتەری جیهانی بۆ تۆری چاو,Global eye and retina center,+9647505882299,,,,Erbil,Erbil,Healthcare,healthcare,36.1925939,44.0321399,,,real,false,osm
د. هەڵگورد فەتحوڵڵا,dr.halgurd fat hullah,+9647505401690,,,"شەقامی نافع یونس, قضاء أربيل",أربيل,Erbil,Healthcare,healthcare,36.1979769,44.0361699,,,real,false,osm
نۆرینگەی دکتۆر یادگار شوانی,Dr. Yadgar Shwani Clinic,+9647505671920,,,"شەقامی نافع یونس, شارۆچکەی ناوەندیی هەولێر",هەولێر,Erbil,Healthcare,healthcare,36.194693,44.0360059,,,real,false,osm
دەرمانخانەی کارزان,,+9647510579438,,,"شەقامی نافع یونس, قضاء أربيل",أربيل,Erbil,Healthcare,healthcare,36.1940469,44.0362833,,,real,false,osm
د.بيان فاروق حسين البرزنجی,Dr.bayan farwq  barznjy,+9647509608550,,,طريق أربيل-كوي سنجق,Erbil,Erbil,Healthcare,healthcare,36.192486,44.0349337,,,real,false,osm
کۆمەڵگای پزیشکی کینگ,komalgay pzishky king,+9647510300704,,king.laboratory123@gmail.com,"شەقامی نافع یونس, قضاء أربيل",أربيل,Erbil,Healthcare,healthcare,36.1991571,44.0361113,,,real,false,osm
د. ئیحسان موحەمەد عەلی,Dr.Ihsan M Ali clinic for ENT,+9647511295622,,irawa2002@gmail.com,"شەقامی نافع یونس, قضاء أربيل",أربيل,Erbil,Healthcare,healthcare,36.1997723,44.0360449,,,real,false,osm
نۆرینگەی دکتۆر ئەژی ڕواندزی,Dr Azhy Rwandizy's clinic,+9647504186061,https://surgical-center-59.business.site/?m=true,azhy1978@gmail.com,"شەقامی نافع یونس, قضاء أربيل",أربيل,Erbil,Healthcare,healthcare,36.2021287,44.0358067,,,real,false,osm
مختبر هيمن(تاقیگه ی هیمن),,+9647504611863,,,,Erbil,Erbil,Healthcare,healthcare,36.2022403,44.0358766,,,real,false,osm
SKY Physiotherapy Clinic,SKY Physiotherapy Clinic,+9647505175050,,skyphysiotherapy12@gmail.com,شەقامی نافع یونس,Erbil,Erbil,Healthcare,healthcare,36.1988988,44.0359462,,,real,false,osm
نۆرینگەی فارس,,+9647504810636,,farsshorsh@gmail.com,"شەقامی دار و ئاسن, قضاء أربيل",أربيل,Erbil,Healthcare,healthcare,36.2082649,44.0229315,,,real,false,osm
دەرمانخانەی موحەمەد فارس,Doctor muhammed fars,+9647503315282,,mahamad.fh98@yahoo.com,"217/6, شەقامی دار و ئاسن, قضاء أربيل",أربيل,Erbil,Healthcare,healthcare,36.205382,44.0206659,,,real,false,osm
نەخۆشخانەی مێدیکاڵ هێڵپ,Medical Help Hospitwl,+9647504813200,http://www.medicalhelphospital.net,medicalhelphospital@gmail.com,"شەقامی پیرمام, قضاء أربيل",أربيل,Erbil,Healthcare,healthcare,36.2071764,44.0250779,,,real,false,osm
کۆمەڵگای پزیشکی ماستەر,,+9647716622115,,dr.muzahem@gmail.com,"شەقامی نافع یونس, قضاء أربيل",أربيل,Erbil,Healthcare,healthcare,36.2097591,44.0358357,,,real,false,osm
دكتور رائيد عةبدولله حاجى,D.Raid Haji Clinic,+9647512089582,,dr.raidhagy.rh@gmail.com,"07512089582, 40 Meter Road",Erbil,Erbil,Healthcare,healthcare,36.2116108,44.0354469,,,real,false,osm
Al Tabib Pharmacy,,+9647505173003,,,"40 Meter Road, قضاء أربيل",أربيل,Erbil,Healthcare,healthcare,36.2114395,44.0356068,,,real,false,osm
دەرمانخانەی دوان,Dwan Pharmacy,+9647504485965,,beyar.kamal@gmail.com,"Dar u Asn Street, قضاء أربيل",أربيل,Erbil,Healthcare,healthcare,36.2139124,44.0271285,,,real,false,osm
نەخۆشخانەی مەریەمانە,,+9647514554141,https://maryamanahospital.com/,info@maryamanahospital.com,"شەقامی کانی, قضاء أربيل",أربيل,Erbil,Healthcare,healthcare,36.2276888,43.9915332,,,real,false,osm
Asst Prof Dr Abdulkadr Alany Clinic,Asst Prof Dr Abdulkadr Alany Clinic,+9647507135662,https://linktr.ee/dralany,,"Best Med Tower, قضاء أربيل",أربيل,Erbil,Healthcare,healthcare,36.2186012,44.0069063,,,real,false,osm
WeCare لطب الاسنان,WeCare dental Clinic,+9647507174461,,,"erbil, ankawa, قضاء أربيل",أربيل,Erbil,Healthcare,healthcare,36.2328927,43.993367,,,real,false,osm
Lausanne Medical and Beauty Center,,+9647504460149,https://www.facebook.com/lausanne.center.medical.erbil/,,"Shlama Street, Ankawa, قضاء أربيل",أربيل,Erbil,Healthcare,healthcare,36.2333682,43.9973205,,,real,false,osm
عیادەی پزیشکی د.مروان,medical clinic marwan rasul,+9647504656994,,,"دارەتوو شەقامی پزیشکان, شارۆچکەی ناوەندیی هەولێر",هەولێر,Erbil,Healthcare,healthcare,36.1232159,44.0499872,,,real,false,osm
نۆرینگەی پزیشکی د.تاڵب و د. فارس,,+9647504888562,,,جووت سایدی دارەتوو,هەولێر,Erbil,Healthcare,healthcare,36.1239635,44.0561399,,,real,false,osm
نۆڕینگەی پزیشکی,,+9647504777669,https://www.facebook.com/MedicalClinic1/,aa3971535@gmail.com,شارۆچکەی ناوەندیی هەولێر,هەولێر,Erbil,Healthcare,healthcare,36.1332241,44.0465644,,,real,false,osm
دەرمانخانەی گوڵی ڕۆشنبیری,Gully Roshnbiry pharmacy,+9647503271510,,,شارۆچکەی هەولێر,هەولێر,Erbil,Healthcare,healthcare,36.1381835,44.043096,,,real,false,osm
نۆرینگەی پزیشک بەیار عەبدوڵا,Dr Bayar’s Urology clinic,+9647501124339,,bayar.1986@gmail.com,"شەقامی نەمامگە, قضاء أربيل",أربيل,Erbil,Healthcare,healthcare,36.1526792,44.0402446,,,real,false,osm
مستشفى فاليا,Valia Hospital,+9647514747432,,,"شەقامی ١٢٠ مەتری, قضاء أربيل",أربيل,Erbil,Healthcare,healthcare,36.1512675,44.051848,,,real,false,osm
مجمع الطبية ريكاي فرمانبران,Farmanbaran Road Medical Center,+9647511474219,https://regayfarmanbaran.business.site/,Regay.farmanbaran@gmail.com,فەرمانبەران 2,Erbil,Erbil,Healthcare,healthcare,36.1498715,44.055104,,,real,false,osm
Erbil express,,+9647504430403,http://www.facebook.com/erbill.express,,,Erbil,Erbil,Healthcare,healthcare,36.1822608,44.0436262,,,real,false,osm
ياريدەدەری پزیشکی رئگە پئ دراو (هاوکار فاروق),,+9647505252569,,,"شەقامی ئایشە گوڵ, قضاء أربيل",أربيل,Erbil,Healthcare,healthcare,36.1831113,44.0472946,,,real,false,osm
مجمع المها الطبي,,+9647505594847,,,,Erbil,Erbil,Healthcare,healthcare,36.1847919,44.0524738,,,real,false,osm
نۆرینگەی پزیشکی دکتۆر پشتیوان هاشم بەزاز,,+9647503917959,,,"شەقامی پێشەوا قازی, قضاء أربيل",أربيل,Erbil,Healthcare,healthcare,36.1887456,44.0409732,,,real,false,osm
دكتور فراس عبدالله,doctor firas abdulla,+9647503104881,,,قضاء أربيل,أربيل,Erbil,Healthcare,healthcare,36.1886821,44.0410736,,,real,false,osm
نۆرینگەی پزیشکی فکتۆر فریاس عەبدوڵڵا,,+9647503104881,,firasabdulla@yahoo.com,"شەقامی پێشەوا قازی, قضاء أربيل",أربيل,Erbil,Healthcare,healthcare,36.188799,44.0410393,,,real,false,osm
صيدلية دلاني رزگاری,Dalany Rizgary Pharmacy,+9647506364008,https://www.dalany.net/,info@dalany.net,شەقامی پێشەوا قازی,Erbil,Erbil,Healthcare,healthcare,36.1910763,44.0417551,,,real,false,osm
دەرمانخانەی هەفاڵان,Havalan pharmacy,+9647503691064,,thealdara@yahoo.com,شه قامى قه بانى زرار,Erbil,Erbil,Healthcare,healthcare,36.1878467,44.0477699,,,real,false,osm
دەروازەی حسارۆک,,+9647504300115,,,,Erbil,Erbil,Healthcare,healthcare,36.1773048,44.0791269,,,real,false,osm
باغی حسارۆک,,+9647507343442,,,,Erbil,Erbil,Healthcare,healthcare,36.1773026,44.07406,,,real,false,osm
دەرمانخانە,,+9647503264547,,,,Erbil,Erbil,Healthcare,healthcare,36.1828114,44.0816105,,,real,false,osm
محمد أنور,Muhammad Anwar,+9647503304201,,romeojuleit2017@gmail.com,New Binaslawa Rd,هەولێر,Erbil,Healthcare,healthcare,36.1552965,44.1031824,,,real,false,osm
نەخۆشخانەی نێودەوڵەتی ژین,Zheen International Hospital,+9647504460096,https://www.zheen-hospital.com/,infi@zheen-hospital.com,"شەقامی کۆیە, قضاء أربيل",أربيل,Erbil,Healthcare,healthcare,36.1944524,44.044492,,,real,false,osm
اي سيف,iSave clinic,+9647514460403,,,"1, شەقامی کۆیە",Erbil,Erbil,Healthcare,healthcare,36.1948185,44.0446135,,,real,false,osm
دەرمانخانەی باغی ڕێحانە,baghi Raihan pharmacy,+9647514484866,https://www.facebook.com/BaghiRaihanpharmacy/,hershxave@yahoo.com,"شەقامی ئەختەری شاعیر, قضاء أربيل",أربيل,Erbil,Healthcare,healthcare,36.1923689,44.0530073,,,real,false,osm
صيدلية روناكى سروران,Pharmacy pagh sarwaran,+9647501008840,,,شەقامی کۆیە,Erbil,Erbil,Healthcare,healthcare,36.195344,44.0518283,,,real,false,osm
دەرمانخانەی بەناز,noringay banaz,+9647508238093,,,"327-60, قضاء أربيل",أربيل,Erbil,Healthcare,healthcare,36.1994825,44.0503707,,,real,false,osm
باغي ريحان,Baghi raihan pharmacy,+9647514484866,,hershxave@yahoo.com,"53V3+2C Erbil, شەقامی ئەختەری شاعیر, قضاء أربيل",أربيل,Erbil,Healthcare,healthcare,36.1923723,44.0535635,,,real,false,osm
نۆرینگەی ددانی هەلا,Hala dental clinics,+9647508585140,,,"شەقامی عەبدولخالق مەعروف, قضاء أربيل",أربيل,Erbil,Healthcare,healthcare,36.1953796,44.060223,,,real,false,osm
دەرمانخانەی سەروەران,Sarwaran pharmacy,+9647504627776,,,"شەقامی عەبدولخالق مەعروف, قضاء أربيل",أربيل,Erbil,Healthcare,healthcare,36.1949668,44.0605625,,,real,false,osm
سمایل زۆن,smile zone,+9647514200008,,,"شەقامی کۆیە, قضاء أربيل",أربيل,Erbil,Healthcare,healthcare,36.1973381,44.0634899,,,real,false,osm
صیدلیة سەرا,Sera Pharmacy,+9647508399191,https://www.facebook.com/Pharmacy.Baghi.sera?mibextid=LQQJ4d,Baghiserapharmacy@gmail.com,"شەقامی کۆیە, قضاء أربيل",أربيل,Erbil,Healthcare,healthcare,36.1954835,44.0603389,,,real,false,osm
صيدلية سروران,Sarwaran pharmacy,+9647502001617,,,"2, شەقامی کۆیە",Erbil,Erbil,Healthcare,healthcare,36.195058,44.0606561,,,real,false,osm
Vega Studio Dental Lab,,+9647512405455,,studiovega36@gmail.com,"159, Gulan",أربيل,Erbil,Healthcare,healthcare,36.1974864,44.0643495,,,real,false,osm
نەخۆشخانەی ئارژین,arzhin hospital,+9647501044646,,,"شەقامی پێشەوا قازی, قضاء أربيل",أربيل,Erbil,Healthcare,healthcare,36.2120803,44.0422462,,,real,false,osm
دةرمانخانةي قبس,Qabas pharmcy,+9647510616757,,zryan.kurdish@gmail.com,"hawleri nwe, قضاء أربيل",أربيل,Erbil,Healthcare,healthcare,36.2045817,44.0710417,,,real,false,osm
Dr. Aram Bakhtiar - Specialist Heart & Vascular Surgeon | د. آرام بختيار - جراح اخصائي القلب والصدر والأوعية الدموية,,+9647726301616,https://draram.com,,"CMC Hospital, Second Floor, Koay Road",Erbil,Erbil,Healthcare,healthcare,36.1997542,44.081502,https://www.facebook.com/dr.arambakhtiar/,,real,false,osm
صيدلية دكتورة ندى,Doctor nada,+9647503110196,,,لاوان سیتی,Erbil,Erbil,Healthcare,healthcare,36.1935791,44.1186195,,,real,false,osm
PAKY HOSPITAL | نەخۆشخانەی پاکی,PAKY Hospital,+9647509950007,,,شەقامی نەورۆز,أربيل,Erbil,Healthcare,healthcare,36.1706239,43.9788535,,,real,false,osm
نەخۆشخانەی سەنتەری دڵ-هەولێر,Erbil cardiac center,+9640662295807,https://erbilcardiaccenter.org/,info@erbilcardiaccenter.org,"108, شەقامی کەرکووک, قضاء أربيل",أربيل,Erbil,Healthcare,healthcare,36.1535978,44.0171455,,,real,false,osm
Sweet pharma pharmacy,,+9647502458288,,mohammeds.9808@icloud.com,"شەقامی ئەحمەدی خانی, قضاء أربيل",أربيل,Erbil,Healthcare,healthcare,36.1538677,44.026685,,,real,false,osm
Renelle Aesthetic Center,,+9647503006006,,,"دريم سيتى, قضاء أربيل",أربيل,Erbil,Healthcare,healthcare,36.2008441,43.9792525,,,real,false,osm
Emergency Management Centre,Emergency Hospital,+964662573380,https://emc-hospitals.org/,,60m-Bakhtiyari Qr. next to Khrabadraw Mosque,Erbil,Erbil,Healthcare,healthcare,36.2000364,43.9973717,,,real,false,osm
Swedish Rehab Center - Pink Line,,+9647508803432,https://swerehcen.business.site/,swerehcen@gmail.com,"شەقامی بارزانی نەمر, قضاء أربيل",أربيل,Erbil,Healthcare,healthcare,36.196231,44.0013634,,,real,false,osm
نەخۆشخانەی سویدیی تایبەت,Swedish Specialist Hospital,+9647508691414,http://www.swedish-hospital.com/,,"Enkawa Cross, قضاء أربيل",أربيل,Erbil,Healthcare,healthcare,36.2221908,44.0070289,,,real,false,osm
نەخۆشخانەی CMC,CMC Hospital,+9647501840005,https://www.cmcph.net/,info@cmcph.net,"شەقامی کۆیە, قضاء أربيل",أربيل,Erbil,Healthcare,healthcare,36.1999965,44.0808895,,,real,false,osm
مخزن.storage.کۆگا,,,,,"140, رێگای گوێڕ",هەولێر,Erbil,Healthcare,healthcare,36.1753029,43.9169807,,,partial,false,osm
شیفا,,,,,قضاء أربيل,أربيل,Erbil,Healthcare,healthcare,36.1698946,43.9351441,,,partial,false,osm
بنکەی تەندروستی سەرکارێز,بنکەی تەندروستی سەرکارێز,,,,Arbil-Baghdad road,أربيل,Erbil,Healthcare,healthcare,36.1150403,43.9672782,,,partial,false,osm
نۆرینگەی دکتۆر محەمەد,Dr. Muhammad's clinic,,,,شەقامی مەخموور,أربيل,Erbil,Healthcare,healthcare,36.1250497,43.9658909,,,partial,false,osm
ده‌رمانخانه,ده‌رمانخانه‌,,,,شەقامی مەخموور,أربيل,Erbil,Healthcare,healthcare,36.1229392,43.9700727,,,partial,false,osm
بنکەی تەندروستی شەهید سۆران,Shahid Soran Health Center,,,,,أربيل,Erbil,Healthcare,healthcare,36.1285673,43.9668196,,,partial,false,osm
hawkari pharmaceutical warehouse,hawkary pharmaceutical warehouse,,,,,هەولێر,Erbil,Healthcare,healthcare,36.1036623,44.0157247,,,partial,false,osm
دەرمانخانەی خۆشی کوردستان,,,,,,أربيل,Erbil,Healthcare,healthcare,36.1256717,44.013099,,,partial,false,osm
دەرمانخانەی ژێنەری ژیان,zhenary zhyan,,,,,أربيل,Erbil,Healthcare,healthcare,36.1261303,44.0092829,,,partial,false,osm
نۆرینگەی ڕێباز,norengay rebaz,,,,,أربيل,Erbil,Healthcare,healthcare,36.1256737,44.0118741,,,partial,false,osm
دەرمانخانەی نەداران,Nadaran pharmacy,,,,,هەولێر,Erbil,Healthcare,healthcare,36.1257588,44.0167258,,,partial,false,osm
نۆرینگەی پزیشکی ئیمان وریا هەمەوەندی,,,,,,هەولێر,Erbil,Healthcare,healthcare,36.1241105,44.0175735,,,partial,false,osm
دەرمانخانەی ڕەواح,,,,,,هەولێر,Erbil,Healthcare,healthcare,36.1243267,44.0179783,,,partial,false,osm
دەرمانخانەی لیا,Liya pharmacy,,,,,أربيل,Erbil,Healthcare,healthcare,36.1244477,44.0207583,,,partial,false,osm
دەرمانخانەی گوڵناز,Gulnaz Pharmacy,,,,,أربيل,Erbil,Healthcare,healthcare,36.124459,44.0211593,,,partial,false,osm
دەرمانخانەی دیمان,diman,,,,,هەولێر,Erbil,Healthcare,healthcare,36.1279442,44.0176296,,,partial,false,osm
بنکەی تەندروستی ڕاستی,Rasti Health Center,,,,"شەقامی پیرباڵ مەحمود, شارۆچکەی ناوەندی هەولێر",هەولێر,Erbil,Healthcare,healthcare,36.138483,44.015852,,,partial,false,osm
دەرمانخانەی هیسا,Hesa pharmacy,,,,قضاء أربيل,أربيل,Erbil,Healthcare,healthcare,36.1284586,44.0332622,,,partial,false,osm
کۆمەڵگای پزیشکی ڕۆشنبیری,Roshnbiry polyclinic,,,,قضاء أربيل,أربيل,Erbil,Healthcare,healthcare,36.1307287,44.0375725,,,partial,false,osm
نۆرینگەی فەرهاد,norengay farhad,,,,قضاء أربيل,أربيل,Erbil,Healthcare,healthcare,36.131435,44.0347479,,,partial,false,osm
نۆرینگەی ڕێناس,norengay renas,,,,"ڕۆشنبیران, قضاء أربيل",أربيل,Erbil,Healthcare,healthcare,36.1318515,44.0354386,,,partial,false,osm
صيدلية لانەی هەژاران,Lanay Hazharan Pharmacy,,,,"ڕۆشنبیران, قضاء أربيل",أربيل,Erbil,Healthcare,healthcare,36.1321308,44.0371423,,,partial,false,osm
صيدلية بەربێل,Barbel Pharmacy,,,,"ڕۆشنبیران, قضاء أربيل",أربيل,Erbil,Healthcare,healthcare,36.1308065,44.0375378,,,partial,false,osm
نۆرینگەی پزیشکی ماردین,CLINIC MARDIN,,,nabaz.kaka@gmail.com,,Erbil,Erbil,Healthcare,healthcare,36.1656812,43.9599195,,,partial,false,osm
بنکەی هەولێر بۆ بوژانەوەی جەستەییی,Erbil center for physical revival,,,,M120 Ring Road,Erbil,Erbil,Healthcare,healthcare,36.1454189,43.975111,,,partial,false,osm
صلیب احمر,ICRC,,,,,Erbil,Erbil,Healthcare,healthcare,36.1458553,43.9748645,,,partial,false,osm
شیخ عبدالکریم کاکە ملا,,,,,شەقامی ١٢٠ مەتری,Erbil,Erbil,Healthcare,healthcare,36.1447765,43.9773077,,,partial,false,osm
د. سوزى,Janbaz clinic,,,,,Erbil,Erbil,Healthcare,healthcare,36.1513708,43.9748765,,,partial,false,osm
مركز التوحد الاماراتي,Emarati autism centre,,,,,Erbil,Erbil,Healthcare,healthcare,36.1567704,43.9618329,,,partial,false,osm
ژامبەر,,,,,,Erbil,Erbil,Healthcare,healthcare,36.1552542,43.971655,,,partial,false,osm
دەرمانخانەی لەیان,layan pharmacy,,,,,Erbil,Erbil,Healthcare,healthcare,36.1608093,43.9667991,,,partial,false,osm
سةنديكاى بالاى كارمةندانى تةندروستي,,,,,,Erbil,Erbil,Healthcare,healthcare,36.1599072,43.9644874,,,partial,false,osm
نەخۆشخانەی لالاف,Lalaf Hospital,,,,,Erbil,Erbil,Healthcare,healthcare,36.1601008,43.9672275,,,partial,false,osm
مستشفى شار,,,,,,Erbil,Erbil,Healthcare,healthcare,36.1608443,43.9669566,,,partial,false,osm
نەخۆشخانەی فریاکەوتنی رۆژئاوای هەولێر,West Erbil emergency hospital,,,,"شەقامی پێشەوا قازی, قضاء أربيل",أربيل,Erbil,Healthcare,healthcare,36.1611088,43.9685698,,,partial,false,osm
بەشی سووتان,Burning Section,,,,,Erbil,Erbil,Healthcare,healthcare,36.1604487,43.9684993,,,partial,false,osm
علاج مرضى التوحد,,,,,,Erbil,Erbil,Healthcare,healthcare,36.1659434,43.9732179,,,partial,false,osm
بنکەی تەندروستی بەهاری نوێ,,,,,,Erbil,Erbil,Healthcare,healthcare,36.155507,43.9768886,,,partial,false,osm
نەخۆشخانەی پێست,Dermatological Center,,,,"107, شەقامی 100 م",Erbil,Erbil,Healthcare,healthcare,36.1555858,43.9775754,,,partial,false,osm
یاران,yaran,,,,,Erbil,Erbil,Healthcare,healthcare,36.1537483,43.976768,,,partial,false,osm
عياده محمد,,,,,,Erbil,Erbil,Healthcare,healthcare,36.1559524,43.981818,,,partial,false,osm
عياده حازم,,,,,,Erbil,Erbil,Healthcare,healthcare,36.1562042,43.9812305,,,partial,false,osm
مزاحم الصميدعي,,,,,شەقامی پێشەوا قازی,Erbil,Erbil,Healthcare,healthcare,36.1579127,43.9819868,,,partial,false,osm
shadnaz pharmacy,,,,,شارۆچکەی ناوەندی هەولێر,هەولێر,Erbil,Healthcare,healthcare,36.1919125,43.9610078,,,partial,false,osm
Pharmacy Chra,,,,,شارۆچکەی ناوەندی هەولێر,هەولێر,Erbil,Healthcare,healthcare,36.1881397,43.9585151,,,partial,false,osm
مختبر ياد,,,,,,Erbil,Erbil,Healthcare,healthcare,36.167935,43.9744313,,,partial,false,osm
د.صالح بابان,,,,,,Erbil,Erbil,Healthcare,healthcare,36.1724829,43.969927,,,partial,false,osm
ازيان,azhyan,,,,نەورۆز,Erbil,Erbil,Healthcare,healthcare,36.1762202,43.9745032,,,partial,false,osm
نەخۆشخانەی سەردەمی تایبەت,Saradam Private Hospital,,,,"شەقامی نەورۆز, قضاء أربيل",أربيل,Erbil,Healthcare,healthcare,36.1676776,43.9763724,https://www.facebook.com/SerdemPrivateHospital/?rf=242536162606866,,partial,false,osm
نەخۆشخانەی رۆژ,Day hospital,,,,,Erbil,Erbil,Healthcare,healthcare,36.1723198,43.9810218,,,partial,false,osm
ناخين دمرمانخانهى صيدلية,Nakhin Pharmacy,,,,,Erbil,Erbil,Healthcare,healthcare,36.1689412,43.9847146,,,partial,false,osm
دەرمانخانەی پەریسا,Parisa,,,,قضاء أربيل,أربيل,Erbil,Healthcare,healthcare,36.1722879,43.9875935,,,partial,false,osm
دەرمانخانەی کۆبین,,,,,قضاء أربيل,أربيل,Erbil,Healthcare,healthcare,36.1770749,43.9811612,,,partial,false,osm
صیدلیة سلام,salam pharmacy,,,,شەقامی ئەلبان,Erbil,Erbil,Healthcare,healthcare,36.1746882,43.9842972,,,partial,false,osm
دەرمانخانەی کۆشکی دەرمان,,,,,"شەقامی نەورۆز, قضاء أربيل",أربيل,Erbil,Healthcare,healthcare,36.1754753,43.9833129,,,partial,false,osm
کۆمەڵگای پزیشکی ئەوینی باڵا,komalgay pzishki Awini Bala,,,,,Erbil,Erbil,Healthcare,healthcare,36.1742958,43.9836882,,,partial,false,osm
نۆرینگەی د. نیعمەت,,,,,"شەقامی زوورگەزراو, قضاء أربيل",أربيل,Erbil,Healthcare,healthcare,36.1751044,43.9836177,,,partial,false,osm
Dr sarwar Qurbani ENT دكتور سرور قرباني,,,,,,Erbil,Erbil,Healthcare,healthcare,36.1876752,43.9680207,,,partial,false,osm
Sima Pharm,,,,,قضاء أربيل,أربيل,Erbil,Healthcare,healthcare,36.1918391,43.9688872,,,partial,false,osm
مەشخەل,mashxal,,,,,Erbil,Erbil,Healthcare,healthcare,36.156596,43.9910737,,,partial,false,osm
دەرمانخانەی ئەشرەفیە,,,,,"شەقامی پیربال مەحمود, قضاء أربيل",أربيل,Erbil,Healthcare,healthcare,36.1544332,44.0136635,,,partial,false,osm
صيدلية أشرفية,Ashrafiyah Pharmacy,,,,قضاء أربيل,أربيل,Erbil,Healthcare,healthcare,36.1544383,44.013719,,,partial,false,osm
دەرمانخانەی هودا,Huda Pharmacy,,,,"شەقامی قاسملۆ, قضاء أربيل",أربيل,Erbil,Healthcare,healthcare,36.1649472,44.0119286,,,partial,false,osm
نەخۆشخانەی نانەکەلی,Nanakaly Hospital,,,,"شەقامی خەبات, قضاء أربيل",أربيل,Erbil,Healthcare,healthcare,36.1645466,44.011027,,,partial,false,osm
دەرمانخانەی ڕاستی,3adala pharmacy,,,,"شەقامی پیرباڵ مەحمود, شارۆچکەی ناوەندی هەولێر",هەولێر,Erbil,Healthcare,healthcare,36.1401072,44.0156065,,,partial,false,osm
عيادة زراعة الشعر,,,,,شارۆچکەی ناوەندی هەولێر,هەولێر,Erbil,Healthcare,healthcare,36.1407641,44.018007,,,partial,false,osm
Dr. Abdulla,,,,,,Erbil,Erbil,Healthcare,healthcare,36.1514717,44.0141655,,,partial,false,osm
مركز الامل الاردني,,,,,قضاء أربيل,أربيل,Erbil,Healthcare,healthcare,36.1509462,44.017378,,,partial,false,osm
صيدلية راستي,Rasti pharmacy,,,,"شەقامی پیرباڵ مەحمود, قضاء أربيل",أربيل,Erbil,Healthcare,healthcare,36.1474371,44.0148423,,,partial,false,osm
نەخۆشخانەی زانکۆ,Zanko hospital,,,,قضاء أربيل,أربيل,Erbil,Healthcare,healthcare,36.1515882,44.018722,,,partial,false,osm
نەخۆشخانەی شیفا,Shifaa Hospital,,,,"شەقامی پێشەوا قازی ١٠٠م, قضاء أربيل",أربيل,Erbil,Healthcare,healthcare,36.1574205,44.022683,,,partial,false,osm
بنکەی تەندرووستی کوردستان,Kurdistan Health Center,,,,قضاء أربيل,أربيل,Erbil,Healthcare,healthcare,36.1556803,44.0262781,,,partial,false,osm
دەرمانخانەی هارمۆنی,,,,,,Erbil,Erbil,Healthcare,healthcare,36.164977,44.019281,,,partial,false,osm
دەرمانخانەی خونچە,,,,,قضاء أربيل,أربيل,Erbil,Healthcare,healthcare,36.1622266,44.0232887,,,partial,false,osm
دەرمانخانەی ژارین,,,,,قضاء أربيل,أربيل,Erbil,Healthcare,healthcare,36.1618267,44.0233216,,,partial,false,osm
دەرمانخانەی دابێژ,dabezh,,,,"341-52, قضاء أربيل",أربيل,Erbil,Healthcare,healthcare,36.1560256,44.0326695,,,partial,false,osm
دەرمانخانەی ڤایۆلێت,,,,,"شەقامی نەمامگە, قضاء أربيل",أربيل,Erbil,Healthcare,healthcare,36.1530447,44.0399109,,,partial,false,osm
دەرمانخانەی فریشتەی بەهەشت,frishtay bahasht,,,,"شەقامی نەمامگە, قضاء أربيل",أربيل,Erbil,Healthcare,healthcare,36.1547422,44.0384046,,,partial,false,osm
دەرمانخانەی پەڕی گوڵ,,,,,"شەقامی نەمامگە, قضاء أربيل",أربيل,Erbil,Healthcare,healthcare,36.1582003,44.0352242,,,partial,false,osm
دەرمانخانەی داهاتوو,,,,,"شەقامی نەمامگە, قضاء أربيل",أربيل,Erbil,Healthcare,healthcare,36.1578763,44.0361981,,,partial,false,osm
بنکەی تەندروستی محمد باجەلان,Muhammad Bajalan Health Center,,,,Alban,Erbil,Erbil,Healthcare,healthcare,36.1689107,43.9906687,,,partial,false,osm
دەرمانخانەی تابلێت,tablet pharmacy,,,,,Erbil,Erbil,Healthcare,healthcare,36.170653,43.9927661,,,partial,false,osm
صیدلیة سلام,salam pharmacy,,,,شەقامی ئەلبان,Erbil,Erbil,Healthcare,healthcare,36.1693932,43.99121,,,partial,false,osm
نۆرینگەی پزیشکی ستار,norengay star,,,,قضاء أربيل,أربيل,Erbil,Healthcare,healthcare,36.171413,43.9882562,,,partial,false,osm
دەرمانخانەی لاڤە,Lava pharmacy,,,,قضاء أربيل,أربيل,Erbil,Healthcare,healthcare,36.1690647,43.9996202,,,partial,false,osm
نۆرینگەی غازی ئاپۆ,norengay ghazi apo,,,,,Erbil,Erbil,Healthcare,healthcare,36.1722616,43.9972688,,,partial,false,osm
نۆرینگەی پزیشکی مەلەک,norengay malak,,,,قضاء أربيل,أربيل,Erbil,Healthcare,healthcare,36.1704284,43.996205,,,partial,false,osm
نۆڕینگەی,norenga,,,,,Erbil,Erbil,Healthcare,healthcare,36.166163,43.9968586,,,partial,false,osm
دکتۆر ئەڤین سلیم حسێن,Dr. Avin salim huseen,,,,,Erbil,Erbil,Healthcare,healthcare,36.1774944,43.9887083,,,partial,false,osm
د. سەفین,,,,,قضاء أربيل,أربيل,Erbil,Healthcare,healthcare,36.1755052,44.0002069,,,partial,false,osm
نۆرینگەی تەیب,norengay talb,,,,,Erbil,Erbil,Healthcare,healthcare,36.1728582,43.9980046,,,partial,false,osm
نۆرینگەی یاسین,norengay yasen,,,,,Erbil,Erbil,Healthcare,healthcare,36.1742898,43.9991212,,,partial,false,osm
نۆرینگەی رزگار,norengay rzgar,,,,,Erbil,Erbil,Healthcare,healthcare,36.1733853,43.9984286,,,partial,false,osm
پزیشکی یاریدەدەر: دلشاد عەبدولقادر شەریف,Medical assistant Dilshad Abdul Qadir Sharif,,,,قضاء أربيل,أربيل,Erbil,Healthcare,healthcare,36.1701609,44.0073184,,,partial,false,osm
دەرمانخانەی تارا,,,,,"شەقامی جەودەت ئەحمەد ناجی, قضاء أربيل",أربيل,Erbil,Healthcare,healthcare,36.1694662,44.0046501,,,partial,false,osm
نۆرینگەی دڵشاد,norengay dlshad,,,,قضاء أربيل,أربيل,Erbil,Healthcare,healthcare,36.170095,44.0073267,,,partial,false,osm
نەخۆشخانەی زانیاری,Zanyari Hospital,,,,"شەقامی کوردستان, قضاء أربيل",أربيل,Erbil,Healthcare,healthcare,36.1740666,44.0063541,,,partial,false,osm
دەرمانخانەی کاوە,,,,doctorkawa@gmail.com,قضاء أربيل,أربيل,Erbil,Healthcare,healthcare,36.1744591,44.0012972,,,partial,false,osm
نۆڕینگەی پزیشکیی زانیاری,Zaniary Medical Clinic,,,,"شەقامی کوردستان, قضاء أربيل",أربيل,Erbil,Healthcare,healthcare,36.1749001,44.0057241,,,partial,false,osm
دەرمانخانەی ڕووناکی بەیار,,,,,"شەقامی کوردستان, قضاء أربيل",أربيل,Erbil,Healthcare,healthcare,36.1742988,44.0052538,,,partial,false,osm
دەرمانخانەی ئازادی,,,,,"شەقامی کوردستان, قضاء أربيل",أربيل,Erbil,Healthcare,healthcare,36.1740556,44.0064566,,,partial,false,osm
د. شفاء,Dr. Shifaa,,,,,Erbil,Erbil,Healthcare,healthcare,36.1762392,44.0010565,,,partial,false,osm
مركز الشامي للعيون,Shami eye center,,,,"60 Meter road, قضاء أربيل",أربيل,Erbil,Healthcare,healthcare,36.1843317,43.9940888,,,partial,false,osm
دەرمانخانەی هاودڵ,Hawdel,,,,"شەقامی کوردستان, قضاء أربيل",أربيل,Erbil,Healthcare,healthcare,36.1842237,43.9940961,,,partial,false,osm
نۆرینگەی سەفا عیزەدین,,,,,قضاء أربيل,أربيل,Erbil,Healthcare,healthcare,36.1878263,43.9992324,,,partial,false,osm
پزیشکی کوردەواری,,,,,قضاء أربيل,أربيل,Erbil,Healthcare,healthcare,36.1897098,44.0041725,,,partial,false,osm
دكتور زانست عزيز حمد خؤشناو,,,,,"شەقامی سوڵتان موزەفەر, قضاء أربيل",أربيل,Erbil,Healthcare,healthcare,36.1915418,44.0008858,,,partial,false,osm
دکتۆر تەها بەدرانی,,,,,قضاء أربيل,أربيل,Erbil,Healthcare,healthcare,36.1919329,44.0032056,,,partial,false,osm
نۆرینگەی پزیشکی ئومێد مەشهەدانی,,,,,"شەقامی بارزانی نەمر, قضاء أربيل",أربيل,Erbil,Healthcare,healthcare,36.1860497,44.0030955,,,partial,false,osm
دەرمانخانەی نیازی,Niyazi Pharmacy,,,,"شەقامی شێخی چۆلی, قضاء أربيل",أربيل,Erbil,Healthcare,healthcare,36.1876038,44.0089682,,,partial,false,osm
دەرمانخانەی چنار,Chnar Pharmacy,,,,"شەقامی شێخی چۆلی, قضاء أربيل",أربيل,Erbil,Healthcare,healthcare,36.1876174,44.007469,,,partial,false,osm
خستخانة مأمون دباغ- للزواج,Mamoon Dabagh -Marriage,,,,شەقامی کەرکووک,Erbil,Erbil,Healthcare,healthcare,36.1704553,44.0150513,,,partial,false,osm
سەنتەری پەرەپێدانی پیشەی بەردەوام,,,,,,Erbil,Erbil,Healthcare,healthcare,36.1702538,44.015525,,,partial,false,osm
Westeye Hospital,,,,,"شەقامی ڕووناکی, قضاء أربيل",أربيل,Erbil,Healthcare,healthcare,36.1701698,44.0244718,,,partial,false,osm
مستشفى كوردستان للعيون وعمليات جراحية ناظور,Kurdistan Eye Center and Operations in Endscope,,,,قضاء أربيل,أربيل,Erbil,Healthcare,healthcare,36.1784261,44.0225857,,,partial,false,osm
دەرمان خانەی هاوکار,hawkar pharmacy,,,,,Erbil,Erbil,Healthcare,healthcare,36.1680143,44.0369495,,,partial,false,osm
صيدلية ڕینمایی,Renmayi pharmacy,,,,,Erbil,Erbil,Healthcare,healthcare,36.1680761,44.036967,,,partial,false,osm
گیا دەرمانی سروشتی رەواندز,,,,,,Erbil,Erbil,Healthcare,healthcare,36.1703774,44.037797,,,partial,false,osm
صيدلية ایبپس,,,,,,Erbil,Erbil,Healthcare,healthcare,36.1725192,44.0380844,,,partial,false,osm
دەرمانخانەی مەشهور,,,,,"1, شەقامی مەلا ئەفەندی, قضاء أربيل",أربيل,Erbil,Healthcare,healthcare,36.1759007,44.0315509,,,partial,false,osm
Mala Fandi Health Center,Mala afandi health center,,,,قضاء أربيل,أربيل,Erbil,Healthcare,healthcare,36.1762825,44.0398548,,,partial,false,osm
دەرمانخانەی ڕەحمە,Al-rahma,,,,"شەقامی جەمال حەیدەری, قضاء أربيل",أربيل,Erbil,Healthcare,healthcare,36.1768164,44.0363624,,,partial,false,osm
صيدلية ئايبيس,,,,,,Erbil,Erbil,Healthcare,healthcare,36.1729214,44.0383734,,,partial,false,osm
دەرمانخانەی پەریهان,Perihan Pharmacy,,,,"شەقامی ئیسکان, قضاء أربيل",أربيل,Erbil,Healthcare,healthcare,36.180897,44.0148322,,,partial,false,osm
کلینکی دکتۆر ناجی-كۆن,Dr Naji Mustafa Clinic,,,,"Jalal Saeid Street, قضاء أربيل",أربيل,Erbil,Healthcare,healthcare,36.1845617,44.0229261,,,partial,false,osm
بنکەی تەندروستی شەهیدان,Shahidan Health Center,,,,قضاء أربيل,أربيل,Erbil,Healthcare,healthcare,36.1822348,44.0244731,,,partial,false,osm
ناوەندی پزیشکی پسپۆڕی دەم و ددانی هەولێر,,,,,قضاء أربيل,أربيل,Erbil,Healthcare,healthcare,36.1892966,44.0200231,,,partial,false,osm
بەڕێوەبەرایەتی لیژنە پزیشکییەکان,bareu barayatia pzishkiyakan,,,,قضاء أربيل,أربيل,Erbil,Healthcare,healthcare,36.1901077,44.019922,,,partial,false,osm
مستشفى نجدت حيدري( نه خوشخانه ى شيرى سيتاقان),Najdat alhaidary Hospital,,,,"60 Meter road, قضاء أربيل",أربيل,Erbil,Healthcare,healthcare,36.1869923,44.0267618,,,partial,false,osm
نەخۆشخانەی ئەمەل,Amal Hospital,,,,,Erbil,Erbil,Healthcare,healthcare,36.1835398,44.0305578,,,partial,false,osm
باواجى,Bawaji Husein,,,,"شورتاوا, قضاء أربيل",أربيل,Erbil,Healthcare,healthcare,36.180575,44.040169,,,partial,false,osm
مستشفی تاران ال,taran hospital,,,,قضاء أربيل,أربيل,Erbil,Healthcare,healthcare,36.1835506,44.0396915,,,partial,false,osm
akşö corona testi,,,,,,Erbil,Erbil,Healthcare,healthcare,36.1800096,44.0361592,,,partial,false,osm
مستشفى دايك,Daik Hospital,,,,,Erbil,Erbil,Healthcare,healthcare,36.1914884,44.0290179,,,partial,false,osm
مجمع بارز الطبي,Baarz Medical Complex,,,,شەقامی چنارۆک,Erbil,Erbil,Healthcare,healthcare,36.1916839,44.0291898,,,partial,false,osm
دكتور فارس القاضي مفاصل و فقرات,,,,,,Erbil,Erbil,Healthcare,healthcare,36.1919892,44.0315979,,,partial,false,osm
بارز,,,,,,Erbil,Erbil,Healthcare,healthcare,36.191668,44.0297652,,,partial,false,osm
دكتور علي فيصل اربيل,,,,,,Erbil,Erbil,Healthcare,healthcare,36.1918934,44.0309946,,,partial,false,osm
نەخۆشخانەی ڕزگاری,Rizgary Hospital,,,,"شەقامی کۆیە, قضاء أربيل",أربيل,Erbil,Healthcare,healthcare,36.1917592,44.0379796,,,partial,false,osm
د. اراس حسن,Dr. Aras Hassan Sherwany,,,,,Erbil,Erbil,Healthcare,healthcare,36.190111,44.0359,,,partial,false,osm
كۆمەلگەی نۆڤێلا,Novella Village,,,,,Erbil,Erbil,Healthcare,healthcare,36.19094,44.0360297,,,partial,false,osm
دكتۆر سامی,skin,,,,,Erbil,Erbil,Healthcare,healthcare,36.1895437,44.0360491,,,partial,false,osm
top mad,,,,,,Erbil,Erbil,Healthcare,healthcare,36.1895951,44.0360647,,,partial,false,osm
d. Abdula,,,,,,Erbil,Erbil,Healthcare,healthcare,36.1907813,44.0361052,,,partial,false,osm
مستوصف لالا الطبي,,,,,"شەقامی جەمال حەیدەری, قضاء أربيل",أربيل,Erbil,Healthcare,healthcare,36.1918309,44.0359923,,,partial,false,osm
سەنتەری پزیشکی تۆپ مێد,Top med medical compound,,,,,Erbil,Erbil,Healthcare,healthcare,36.1889015,44.0359235,,,partial,false,osm
پرسگەی نەخۆشخانەی رزگاری٪,,,,,,Erbil,Erbil,Healthcare,healthcare,36.1897144,44.0370542,,,partial,false,osm
تولیا,Tolia,,,,شەقامی جەمال حەیدەری,Erbil,Erbil,Healthcare,healthcare,36.188793,44.036149,,,partial,false,osm
Senses Beauty Medical Center,,,,,قضاء أربيل,أربيل,Erbil,Healthcare,healthcare,36.194989,43.9677925,,,partial,false,osm
Sarwaran Pharmacy,,,,,"شەقامی ئیحسان شێرزاد, شارۆچکەی ناوەندی هەولێر",هەولێر,Erbil,Healthcare,healthcare,36.1924031,43.9618401,,,partial,false,osm
دەرمانخانەی ئاپۆتیک,,,,,"شەقامی ڕەمزی نافع, قضاء أربيل",أربيل,Erbil,Healthcare,healthcare,36.2086704,43.9827569,,,partial,false,osm
وايز,Wise Clinic,,,,قضاء أربيل,أربيل,Erbil,Healthcare,healthcare,36.2062232,43.9875328,,,partial,false,osm
Velocity Center,,,,,"68, 216-68, قضاء أربيل",أربيل,Erbil,Healthcare,healthcare,36.2143332,43.9790387,,,partial,false,osm
نەخۆشخانەی تایبەتی هەولێر,Hawler Private Hospital,,,,قضاء أربيل,أربيل,Erbil,Healthcare,healthcare,36.2174045,43.9861067,,,partial,false,osm
سەنتەری جوانکاری ئەستێرە,Astera beauty centae,,,,قضاء أربيل,أربيل,Erbil,Healthcare,healthcare,36.2157102,43.9818199,,,partial,false,osm
مساج ريتاريو اربيل,,,,,قضاء أربيل,أربيل,Erbil,Healthcare,healthcare,36.2142697,43.9851415,,,partial,false,osm
نەخۆشخانەی سەنتەری تاڵاسیما,,,,,,Erbil,Erbil,Healthcare,healthcare,36.2429422,43.9860618,,,partial,false,osm
عياده دكتور صفاء عزالدين,,,,,قضاء أربيل,أربيل,Erbil,Healthcare,healthcare,36.193279,43.9990868,,,partial,false,osm
نۆرینگەی پزیشکی وێڵفەر,,,,,"شەقامی سامی شۆڕش, قضاء أربيل",أربيل,Erbil,Healthcare,healthcare,36.2029759,43.99207,,,partial,false,osm
مستشفى ولڤر,,,,,"شەقامی سامی شۆڕش, قضاء أربيل",أربيل,Erbil,Healthcare,healthcare,36.2030267,43.9921173,,,partial,false,osm
مستشفى ولڤر,,,,,"شەقامی سامی شۆڕش, قضاء أربيل",أربيل,Erbil,Healthcare,healthcare,36.2029815,43.9919483,,,partial,false,osm
د.جنكي شوكت سالةيي,dr.jangi shawkat salayi,,,,قضاء أربيل,أربيل,Erbil,Healthcare,healthcare,36.2024045,44.0005099,,,partial,false,osm
SKaff Pharmacy,,,,,قضاء أربيل,أربيل,Erbil,Healthcare,healthcare,36.2003264,43.9959245,,,partial,false,osm
المركز الإنكليزي للعيون اربيل,,,,,قضاء أربيل,أربيل,Erbil,Healthcare,healthcare,36.2007576,43.9954426,,,partial,false,osm
Bluekenya Pharmacy,,,,,قضاء أربيل,أربيل,Erbil,Healthcare,healthcare,36.2010262,43.9949639,,,partial,false,osm
Ismail Hasan barzanjy,,,,,قضاء أربيل,أربيل,Erbil,Healthcare,healthcare,36.2009429,43.9950793,,,partial,false,osm
Emergency Erbil Hospital,,,,,قضاء أربيل,أربيل,Erbil,Healthcare,healthcare,36.1998033,43.9975016,,,partial,false,osm
د. عبدالسلام جاف,,,,,قضاء أربيل,أربيل,Erbil,Healthcare,healthcare,36.1949153,44.0063764,,,partial,false,osm
عبد الجبار السوداني - جلدية,,,,,قضاء أربيل,أربيل,Erbil,Healthcare,healthcare,36.1952072,44.0037979,,,partial,false,osm
دكتورة حسيبة محمد أمين خوشناو,Dr. Hasiba Muhammad Amin Khoshnaw,,,,"شەقامی پزیشکان, قضاء أربيل",أربيل,Erbil,Healthcare,healthcare,36.1948887,44.004953,,,partial,false,osm
کلینیک دکتۆر ئەیاد فەرەج,Clinic dr Ayad Faraj,,,,قضاء أربيل,أربيل,Erbil,Healthcare,healthcare,36.1946495,44.0051685,,,partial,false,osm
شارع الأطباء,chapamany Shaqam,,,,قضاء أربيل,أربيل,Erbil,Healthcare,healthcare,36.1942161,44.0056592,,,partial,false,osm
د. عەلی عبداللطيف بەرزنجی (پزیشکەوانی هەناوی),Dr. Ali Abdullatif Barzinji (internal medicine),,,,"شەقامی پزیشکان, قضاء أربيل",أربيل,Erbil,Healthcare,healthcare,36.1945659,44.006067,,,partial,false,osm
Midya Marouf Kheznedar,,,,,قضاء أربيل,أربيل,Erbil,Healthcare,healthcare,36.1953632,44.0064192,,,partial,false,osm
dr.sirwan,Doctor sirwan,,,,"Pizishkan Street, قضاء أربيل",أربيل,Erbil,Healthcare,healthcare,36.1949831,44.0049996,,,partial,false,osm
عيادة سيما للعيون الدكتور علي جولاق,sema eye clinic,,,,قضاء أربيل,أربيل,Erbil,Healthcare,healthcare,36.1958215,44.0052937,,,partial,false,osm
عيادەی دکتور محسن علی بلباس,,,,,"قرب شارع الاطباء, قضاء أربيل",أربيل,Erbil,Healthcare,healthcare,36.1945664,44.0059581,,,partial,false,osm
دكتور صفاء الدين,,,,,قضاء أربيل,أربيل,Erbil,Healthcare,healthcare,36.1927108,44.0023922,,,partial,false,osm
دكتۆر موزەفەر بارزانی,Dr. muzafar Barzani,,,,قضاء أربيل,أربيل,Erbil,Healthcare,healthcare,36.1935555,44.0028148,,,partial,false,osm
نۆرینگەی تیشکی سۆنار,,,,,قضاء أربيل,أربيل,Erbil,Healthcare,healthcare,36.1975159,44.0037043,,,partial,false,osm
د.روز برهان الدين / ئافرەتان,dr. roz burhan aldin,,,,قضاء أربيل,أربيل,Erbil,Healthcare,healthcare,36.1945671,44.0060169,,,partial,false,osm
د. احمد ئەلقوریشی بۆ چاو,Dr. Ahmad al-Qurishi for eye,,,,قضاء أربيل,أربيل,Erbil,Healthcare,healthcare,36.1944093,44.0053742,,,partial,false,osm
نظارات اوكي,,,,,قضاء أربيل,أربيل,Erbil,Healthcare,healthcare,36.1940567,44.0058694,,,partial,false,osm
ميديكير ٢,medicare 2,,,,قضاء أربيل,أربيل,Erbil,Healthcare,healthcare,36.1925874,44.002771,,,partial,false,osm
نەخۆشخانەی تایبەتی سیما,Sima Private Hospital,,,,قضاء أربيل,أربيل,Erbil,Healthcare,healthcare,36.19689,44.00422,,,partial,false,osm
دەرمانخانەی پەخشان,Pakhshan Pharmacy,,,,"شەقامی پزیشکان, قضاء أربيل",أربيل,Erbil,Healthcare,healthcare,36.1943804,44.0055866,,,partial,false,osm
د هيثم غنام,dr.haytham,,,,قضاء أربيل,أربيل,Erbil,Healthcare,healthcare,36.1953248,44.0040399,,,partial,false,osm
Dr. Rewesht,,,,,قضاء أربيل,أربيل,Erbil,Healthcare,healthcare,36.1923908,44.0027988,,,partial,false,osm
مذخر ادوية جودى,judi drugstore,,,,"شەقامی پزیشکان, قضاء أربيل",أربيل,Erbil,Healthcare,healthcare,36.1953771,44.0022005,,,partial,false,osm
صيدلية امير,,,,,قضاء أربيل,أربيل,Erbil,Healthcare,healthcare,36.1933876,44.0055595,,,partial,false,osm
دكتور معتز فاضل,,,,,قضاء أربيل,أربيل,Erbil,Healthcare,healthcare,36.19797,44.0021653,,,partial,false,osm
Dr. Dashty Bustany,,,,,"شەقامی پزیشکان, قضاء أربيل",أربيل,Erbil,Healthcare,healthcare,36.1949323,44.0072882,,,partial,false,osm
د. شەوقی غەزالی,,,,,قضاء أربيل,أربيل,Erbil,Healthcare,healthcare,36.1969554,44.0037811,,,partial,false,osm
شەقامی پزیشکان,shaqamy pzishkan,,,,قضاء أربيل,أربيل,Erbil,Healthcare,healthcare,36.1953259,44.0047877,,,partial,false,osm
dktor baran,,,,,قضاء أربيل,أربيل,Erbil,Healthcare,healthcare,36.1945581,44.0072296,,,partial,false,osm
هەولێر DS,hawler ds,,,,قضاء أربيل,أربيل,Erbil,Healthcare,healthcare,36.1953651,44.0037454,,,partial,false,osm
دكتور داود حسن,,,,,قضاء أربيل,أربيل,Erbil,Healthcare,healthcare,36.1944653,44.0041133,,,partial,false,osm
شركة ومذخر شمالك,,,,,قضاء أربيل,أربيل,Erbil,Healthcare,healthcare,36.1967472,44.006107,,,partial,false,osm
مذخر أدوية سوزان,,,,,قضاء أربيل,أربيل,Erbil,Healthcare,healthcare,36.1945131,44.0044244,,,partial,false,osm
مذخر تازه,Taza Drug Store,,,,قضاء أربيل,أربيل,Erbil,Healthcare,healthcare,36.1950118,44.0014992,,,partial,false,osm
دکتۆر فاضل محمد امین,"Dr. Fadil M. Amin, Dermatologist",,,,قضاء أربيل,أربيل,Erbil,Healthcare,healthcare,36.1937523,44.0054374,,,partial,false,osm
تاقیگەی پزیشکیی بێست,Best Medical Laboratory,,,,قضاء أربيل,أربيل,Erbil,Healthcare,healthcare,36.1948033,44.0050192,,,partial,false,osm
دکتۆر محی الدین شریف قورتاس,Dr. Mihyeddin Sherif Qurtas,,,,قضاء أربيل,أربيل,Erbil,Healthcare,healthcare,36.193785,44.0052759,,,partial,false,osm
بث,,,,,قضاء أربيل,أربيل,Erbil,Healthcare,healthcare,36.1973236,44.0025503,,,osm,false,osm
دكتور امانج,,,,,قضاء أربيل,أربيل,Erbil,Healthcare,healthcare,36.1970133,44.0017483,,,partial,false,osm
الدكتور محسن علي بلباس,Doctor Muhsin Ali Bilbas,,,,قضاء أربيل,أربيل,Erbil,Healthcare,healthcare,36.1952541,44.0045667,,,partial,false,osm
د. زانا غەنی چەلەبی,Dr. Zana Xani Chalabi,,,,قضاء أربيل,أربيل,Erbil,Healthcare,healthcare,36.1968865,44.0033317,,,partial,false,osm
مختبر بايو,bio lab,,,,شەقامی پزیشکان,Erbil,Erbil,Healthcare,healthcare,36.1947452,44.005419,,,partial,false,osm
ابراهيم خليل,,,,,,Erbil,Erbil,Healthcare,healthcare,36.1964896,44.0038417,,,partial,false,osm
Light Alnes,,,,,,Erbil,Erbil,Healthcare,healthcare,36.1946653,44.0021662,,,partial,false,osm
دەرمانخانەی بەیار,,,,,,Erbil,Erbil,Healthcare,healthcare,36.1952747,44.0049068,,,partial,false,osm
دكتور ابراهيم ته يراوه يى,,,,,قضاء أربيل,أربيل,Erbil,Healthcare,healthcare,36.1953404,44.0076502,,,partial,false,osm
نەخۆشخانەی تایبەتی هەولێر,Hawler Private Hospital,,,,"شەقامی بارزانی نەمر, قضاء أربيل",أربيل,Erbil,Healthcare,healthcare,36.19731,44.0138,,,partial,false,osm
نەخۆشخانەی سۆران,Soran Hospital,,,,"شەقامی کوردستان, قضاء أربيل",أربيل,Erbil,Healthcare,healthcare,36.2032224,44.005171,,,partial,false,osm
المركز الاردني للعيون,Jordan Eye Center,,,,"60 Meter road, قضاء أربيل",أربيل,Erbil,Healthcare,healthcare,36.2006955,44.0016562,,,partial,false,osm
نەخۆشخانەی تایبەتی ڕەحمە,Rahma Private Hospital,,,,قضاء أربيل,أربيل,Erbil,Healthcare,healthcare,36.2016837,44.0100286,,,partial,false,osm
دەرمانخانەی دکتۆر بۆتان,Dr.Botan,,,,"شەقامی کۆنی بەحرکە, قضاء أربيل",أربيل,Erbil,Healthcare,healthcare,36.2106693,44.0105654,,,partial,false,osm
دەرمانخانەی ئەفسانە,afsana pharmacy,,,,قضاء أربيل,أربيل,Erbil,Healthcare,healthcare,36.2107272,44.0135768,,,partial,false,osm
دەرمانخانەی بوخاری,bwxari pharmacy,,,,"شەقامی کۆنی بەحرکە, قضاء أربيل",أربيل,Erbil,Healthcare,healthcare,36.2099952,44.0104087,,,partial,false,osm
نەخۆشخانەی مێدیکانۆ,Medicano private hospital,,,,"128, شەقامی کۆنی بەحرکە, قضاء أربيل",أربيل,Erbil,Healthcare,healthcare,36.2123772,44.010899,,,partial,false,osm
دەرمانخانەی شلۆڤە,shlova pharmacy,,,,"شەقامی کۆنی بەحرکە, قضاء أربيل",أربيل,Erbil,Healthcare,healthcare,36.2182863,44.0109987,,,partial,false,osm
دەرمانخانەی مێدیکانۆ,میدیکانۆ,,,,"128, شەقامی کۆنی بەحرکە, قضاء أربيل",أربيل,Erbil,Healthcare,healthcare,36.212528,44.0109076,,,partial,false,osm
دكتور عامر مفاصل/مستشفى مديكانوا,,,,,,Erbil,Erbil,Healthcare,healthcare,36.2123709,44.0105922,,,partial,false,osm
Khanzad teaching Center for Oral and Dental Health,,,,,قضاء أربيل,أربيل,Erbil,Healthcare,healthcare,36.1961977,44.0170763,,,partial,false,osm
گورچیله‌ی ده‌ستكرد,Artificial kidney (dialysis department),,,,,Erbil,Erbil,Healthcare,healthcare,36.1976942,44.0198677,,,partial,false,osm
کۆگای دەرمان و پێداویستی پزیشکی,Warehouse of medicines and medical supplies,,,,قضاء أربيل,أربيل,Erbil,Healthcare,healthcare,36.1977671,44.0192081,,,partial,false,osm
نەخۆشخانەی ددانیی خانزاد,,,,,قضاء أربيل,أربيل,Erbil,Healthcare,healthcare,36.19569,44.01691,,,partial,false,osm
غسيل الكلى مستشفى اربيل التعليمي (الجمهوري),,,,,,Erbil,Erbil,Healthcare,healthcare,36.198224,44.0199545,,,partial,false,osm
نەخۆشخانەی سەلامەتی کوردستان,Salamati Hospital,,,,"شەقامی ٦٠ مەتری, قضاء أربيل",أربيل,Erbil,Healthcare,healthcare,36.2027799,44.0169449,,,partial,false,osm
مستشفى النفسية,Psychiatric Hospital,,,,"شەقامی کوردستان ٦٠م, قضاء أربيل",أربيل,Erbil,Healthcare,healthcare,36.1996119,44.0218896,,,partial,false,osm
Dlovan,,,,,,Erbil,Erbil,Healthcare,healthcare,36.1927125,44.0326723,,,partial,false,osm
اللجنة الدولية للصليب الأحمر أربيل,The International Community of the Red Cross Erbil,,,,,Erbil,Erbil,Healthcare,healthcare,36.1935022,44.0294592,,,partial,false,osm
سەنتەری گلۆبال بۆ چاو,Global Eye Center,,,,,Erbil,Erbil,Healthcare,healthcare,36.1925961,44.0321794,,,partial,false,osm
Gailan Pharmacy,,,,,brayate,أربيل,Erbil,Healthcare,healthcare,36.1958205,44.0292532,,,partial,false,osm
سەنتەری وایت دێنت بۆ ددان,White dend Dental Center,,,,"شەقامی هۆڵی زەرد, قضاء أربيل",أربيل,Erbil,Healthcare,healthcare,36.1965169,44.0355424,,,partial,false,osm
د. حەلی فەیسەڵیی نەشتەرگەری جومگە,,,,,"شەقامی نافع یونس, قضاء أربيل",أربيل,Erbil,Healthcare,healthcare,36.1967066,44.0362182,,,partial,false,osm
کۆمەڵگای پزیشکی بەزاز فارما,Al-bazaz Farmi Medical Comunity,,,,"شەقامی نافع یونس, شارۆچکەی ناوەندیی هەولێر",هەولێر,Erbil,Healthcare,healthcare,36.1952363,44.0363011,,,partial,false,osm
ناوەندی کوردستان بۆ پەلی دەستکرد,The center of Kurdistan for artificial space,,,,"شەقامی هۆلی زەرد, قضاء أربيل",أربيل,Erbil,Healthcare,healthcare,36.1967273,44.0365646,,,partial,false,osm
نەخۆشخانەی فریاکەوتنی ڕۆژهەڵات,East Emergency Hospital,,,,"شەقامی کۆیە, قضاء أربيل",أربيل,Erbil,Healthcare,healthcare,36.1926381,44.0394417,,,partial,false,osm
دكتور فاخر يوسف,dr fakher,,,,,Erbil,Erbil,Healthcare,healthcare,36.1936574,44.0374891,,,partial,false,osm
د. موستەفا عوسمان,dr. Mustafa Othman,,,,"شەقامی نافع یونس, قضاء أربيل",أربيل,Erbil,Healthcare,healthcare,36.1979978,44.0361871,,,partial,false,osm
Shar Medical Center,Dr. Sadiq Aziz,,,,,Erbil,Erbil,Healthcare,healthcare,36.1923928,44.0360068,,,partial,false,osm
کۆمەڵگای پزیشکی نایاب,,,,,"شەقامی نافع یونس, شارۆچکەی ناوەندیی هەولێر",هەولێر,Erbil,Healthcare,healthcare,36.1951581,44.0360246,,,partial,false,osm
دكتور باساك برزنجي امراض الدم والاورام,,,,,,Erbil,Erbil,Healthcare,healthcare,36.1927912,44.0339614,,,partial,false,osm
عمارة هندريشه الطبي,,,,,"شەقامی کۆیە, قضاء أربيل",أربيل,Erbil,Healthcare,healthcare,36.1928497,44.0342202,,,partial,false,osm
د. فەرهاد موستەفا,dr. Farhad Mustafa Clinic,,,,"شەقامی نافع یونس, شارۆچکەی ناوەندیی هەولێر",هەولێر,Erbil,Healthcare,healthcare,36.1945804,44.0363483,,,partial,false,osm
د. يوسف فاروق برزنجي,Dr Yousif Faruq Barzinji,,,,,Erbil,Erbil,Healthcare,healthcare,36.1924556,44.0348171,,,partial,false,osm
ئاواتی دوارۆژ,Awati Dwarozh,,,,"شەقامی نافع یونس, قضاء أربيل",أربيل,Erbil,Healthcare,healthcare,36.1967148,44.0361913,,,partial,false,osm
نۆرینگەی خەندەی هەولێر,Erbil Smile dental Clinic,,,,"شەقامی نافع یونس, قضاء أربيل",أربيل,Erbil,Healthcare,healthcare,36.1953564,44.0362743,,,partial,false,osm
کۆمەڵگای پزیشکی ئەوروپایی,,,,,"شەقامی نافع یونس, قضاء أربيل",أربيل,Erbil,Healthcare,healthcare,36.1976421,44.0358833,,,partial,false,osm
دەرمانخانەی دەروازەی چارەسەر,abwab alhikma,,,,"شەقامی نافع یونس, شارۆچکەی ناوەندیی هەولێر",هەولێر,Erbil,Healthcare,healthcare,36.1945205,44.0360113,,,partial,false,osm
دەرمانخانەی شەهرزاد,,,,,"شەقامی نافع یونس, قضاء أربيل",أربيل,Erbil,Healthcare,healthcare,36.1985101,44.0361888,,,partial,false,osm
د. سروە خالید ئیسماعیل,,,,,"شەقامی نافع یونس, قضاء أربيل",أربيل,Erbil,Healthcare,healthcare,36.1962825,44.0360251,,,partial,false,osm
SHINY SMILE CENTER,,,,,"0096 4750 605 0010, شەقامی جەمال حەیدەری, قضاء أربيل",أربيل,Erbil,Healthcare,healthcare,36.1923973,44.0359391,,,partial,false,osm
د. سامان تاهیر,,,,,"شەقامی نافع یونس, قضاء أربيل",أربيل,Erbil,Healthcare,healthcare,36.1965122,44.03622,,,partial,false,osm
نۆڕینگەی د. موحەمەد ئیبراهیم,D.Mohammed Ibrahim,,,,شارۆچکەی ناوەندیی هەولێر,هەولێر,Erbil,Healthcare,healthcare,36.194541,44.0359926,,,partial,false,osm
نەخۆشخانەی رزگاریی بەشی فریاکەوتن,Rizgary hospital,,,,,Erbil,Erbil,Healthcare,healthcare,36.192814,44.039523,,,partial,false,osm
لەنیا سکان,Lanya Scan,,,,شەقامی هۆڵی زەرد,أربيل,Erbil,Healthcare,healthcare,36.1969137,44.037674,,,partial,false,osm
دکتور شیروان جلال شریف,Dr Sherwan Jalal Sharif,,,,40 meters,Erbil,Erbil,Healthcare,healthcare,36.1980823,44.0362025,,,partial,false,osm
کۆمەڵگای پزیشکی ڕەحمە,Rahma Medical Community for Dental,,,,"شەقامی برایەتی, قضاء أربيل",أربيل,Erbil,Healthcare,healthcare,36.2016106,44.0328051,,,partial,false,osm
مجمع طبى توو,,,,,,Erbil,Erbil,Healthcare,healthcare,36.1995816,44.0334173,,,partial,false,osm
Plastic surgery,,,,,"شەقامی نافع یونس, قضاء أربيل",أربيل,Erbil,Healthcare,healthcare,36.2021919,44.0362245,,,partial,false,osm
نۆڕینگەی پزیشکی دکتۆر ئیحسان موحەمەد عەلی,Dr. ihsan m ali ENT,,,,قضاء أربيل,أربيل,Erbil,Healthcare,healthcare,36.1991441,44.0370386,,,partial,false,osm
دەرمانخانەی فارما,pharma pharmacy,,,,"شەقامی نافع یونس, قضاء أربيل",أربيل,Erbil,Healthcare,healthcare,36.2000162,44.0362602,,,partial,false,osm
نۆڕینگەی دکتۆر موحەمەد مەشهەدانی,,,,,"شەقامی نافع یونس, قضاء أربيل",أربيل,Erbil,Healthcare,healthcare,36.2010823,44.0358286,,,partial,false,osm
نۆڕینگەی کوردستان سمایڵ دێنتاڵ,Kurdistan smile dental clinc,,,,"شەقامی نافع یونس, قضاء أربيل",أربيل,Erbil,Healthcare,healthcare,36.2004845,44.0358468,,,partial,false,osm
سەنتەری ڕۆزان میدیک,rozan midic center,,,,"شەقامی برایەتی, قضاء أربيل",أربيل,Erbil,Healthcare,healthcare,36.2033463,44.0373286,,,partial,false,osm
نۆرینگەی غەدە,,,,,قضاء أربيل,أربيل,Erbil,Healthcare,healthcare,36.2003908,44.0350958,,,partial,false,osm
دكتور شاكر عبوش,,,,,,Erbil,Erbil,Healthcare,healthcare,36.2004806,44.0385805,,,partial,false,osm
نۆرینگەی پزیشکی د. ئەحمەد میسر,,,,,"224-162, قضاء أربيل",أربيل,Erbil,Healthcare,healthcare,36.200479,44.0387053,,,partial,false,osm
د، موحەمەد سەدیق,Dr. Mahmood M. Sadiq Clinic,,,,"شەقامی نافع یونس, قضاء أربيل",أربيل,Erbil,Healthcare,healthcare,36.200058,44.0361676,,,partial,false,osm
نۆڕینگەی دکتۆر لەبیب حوسێنی,Dr. Labeeb Alhusseini,,,,"شەقامی نافع یونس, قضاء أربيل",أربيل,Erbil,Healthcare,healthcare,36.2022641,44.0358086,,,partial,false,osm
دەرمانخانەی سەلامەتی,SALAMATY PHARMACY,,,,"شەقامی نافع یونس, قضاء أربيل",أربيل,Erbil,Healthcare,healthcare,36.2034747,44.035809,,,partial,false,osm
اكيا,Akya,,,,طريق ٤٠ متر,Erbil,Erbil,Healthcare,healthcare,36.2003041,44.0384991,,,partial,false,osm
الدكتور احسان كريم الشمري,,,,,"شەقامی برایەتی, قضاء أربيل",أربيل,Erbil,Healthcare,healthcare,36.2023158,44.0349212,,,partial,false,osm
د. نزار خەلیفە,,,,,"شەقامی نافع یونس, قضاء أربيل",أربيل,Erbil,Healthcare,healthcare,36.2015905,44.0358107,,,partial,false,osm
دكتور سيروان كامل علي,Dr.Sirwan Kamil Ali,,,,شەقامی برایەتی,Erbil,Erbil,Healthcare,healthcare,36.2033708,44.0381408,,,partial,false,osm
صيدلية تاراج,Taraj Pharmacy,,,,شەقامی برایەتی,Erbil,Erbil,Healthcare,healthcare,36.2033664,44.0381208,,,partial,false,osm
کۆمەڵگای پزیشکی لارڤین,,,,,"شەقامی نافع یونس, قضاء أربيل",أربيل,Erbil,Healthcare,healthcare,36.1994617,44.0359259,,,partial,false,osm
نۆرینگەی نۆڤێلا,novella clinic,,,,"شەقامی نافع یونس, قضاء أربيل",أربيل,Erbil,Healthcare,healthcare,36.2021911,44.0358068,,,partial,false,osm
د. ئیحسان موحەمەد عەلی,Pharmedent medical complex Dr ihsan Mohammed Ali Clinic,,,,"224-162, قضاء أربيل",أربيل,Erbil,Healthcare,healthcare,36.2001532,44.0369484,,,partial,false,osm
د. پێرس شێروان,,,,,"شەقامی نافع یونس, قضاء أربيل",أربيل,Erbil,Healthcare,healthcare,36.2045515,44.035968,,,partial,false,osm
دكتورة جوان زه نگنه,,,,,,Erbil,Erbil,Healthcare,healthcare,36.2034076,44.0382766,,,partial,false,osm
محمد ياوه ر40مه ترى,,,,,,Erbil,Erbil,Healthcare,healthcare,36.2030359,44.0368794,,,partial,false,osm
دەرمانخانەی ناوشار,Nawshar pharmacy,,,,"جادەی سورچیان, قضاء أربيل",أربيل,Erbil,Healthcare,healthcare,36.2073821,44.0147021,,,partial,false,osm
دەرمانخانەی نەورەس,nawras pharmacy,,,,"جادەی سورچیان, قضاء أربيل",أربيل,Erbil,Healthcare,healthcare,36.208722,44.0150906,,,partial,false,osm
ڕێچارە,rechara,,,,شەقامی پیرمام,Erbil,Erbil,Healthcare,healthcare,36.2072394,44.0250952,,,partial,false,osm
EDL,,,,,"شەقامی ڕەسوول گەردی, قضاء أربيل",أربيل,Erbil,Healthcare,healthcare,36.2132167,44.0186982,,,partial,false,osm
د. کامەران کەریم شێخانی,,,,,قضاء أربيل,أربيل,Erbil,Healthcare,healthcare,36.2138582,44.014402,,,partial,false,osm
دکتورە کافیا رسول حمە,Dr.Kafya Rasol hama,,,,,Erbil,Erbil,Healthcare,healthcare,36.2139533,44.0142471,,,partial,false,osm
بنکەی تەندرووستی بامەڕنێ,Nazdar bamarni Healthcare,,,,"شەقامی گوڵان, قضاء أربيل",أربيل,Erbil,Healthcare,healthcare,36.217862,44.026274,,,partial,false,osm
دەرمانخانەی خونچە,xwncha pharmacy,,,,"شەقامی ڕەسوول گەردی, قضاء أربيل",أربيل,Erbil,Healthcare,healthcare,36.2171023,44.0214306,,,partial,false,osm
دەرمانخانەی خونچەی بەهار,Xunchay Bahar Pharmacy,,,,"شەقامی ڕەسوول گەردی, قضاء أربيل",أربيل,Erbil,Healthcare,healthcare,36.2168645,44.0214091,,,partial,false,osm
پزیشکانی بێ سنور,Medecins sans frontiers swees,,,,shorsh,Erbil,Erbil,Healthcare,healthcare,36.2115588,44.0306831,,,partial,false,osm
Dr. Srud Kamal,,,,,40 Meter Road,Erbil,Erbil,Healthcare,healthcare,36.2113943,44.0355879,,,partial,false,osm
نشاط الخياط مجمع كلينكا,,,,,"شەقامی نافع یونس, قضاء أربيل",أربيل,Erbil,Healthcare,healthcare,36.209069,44.0359633,,,partial,false,osm
الدكتور احمد الفاطمي مفاصل,,,,,,Erbil,Erbil,Healthcare,healthcare,36.211639,44.0356016,,,partial,false,osm
مجمع الطبي الامريكي,د.محمد محسن الصالح,,,,شارع 40 قريب من فلكة حي الشرطه,Erbil,Erbil,Healthcare,healthcare,36.2117557,44.0356353,,,partial,false,osm
د. ڕەقیب سنیار دری,,,,,"شەقامی نافع یونس, قضاء أربيل",أربيل,Erbil,Healthcare,healthcare,36.2058513,44.0356763,,,partial,false,osm
دكتور جعفر سيد ابراهيم,,,,,,Erbil,Erbil,Healthcare,healthcare,36.2117975,44.0355918,,,partial,false,osm
صيدلية ميران,Miran Pharmacy,,,,2,Erbil,Erbil,Healthcare,healthcare,36.2114956,44.0359044,,,partial,false,osm
دكتوره رغد كريم/شارع الاطباء,Dr. Raghad Kareem,,,,شارع 40 متري,Erbil,Erbil,Healthcare,healthcare,36.2064128,44.0360071,,,partial,false,osm
مجمع كلينكا/شارع الاطباء ٤٠ متري,Clinika Clinic,,,,,Erbil,Erbil,Healthcare,healthcare,36.2064424,44.0359755,,,partial,false,osm
حسن جمعة شيخو,,,,,,Erbil,Erbil,Healthcare,healthcare,36.2062589,44.0359081,,,partial,false,osm
دكتوردلشادعبدالرحمن,,,,,اربيل شارع40,Erbil,Erbil,Healthcare,healthcare,36.2060997,44.0360903,,,partial,false,osm
مستشفى الام,maternity child born hospital,,,,,Erbil,Erbil,Healthcare,healthcare,36.2157027,44.0333128,,,partial,false,osm
نەخۆشخانەی لەدایکبوونی هەولێر,maternity (child born) hospital,,,,Shaqlawa Street,Erbil,Erbil,Healthcare,healthcare,36.2160658,44.0325413,,,partial,false,osm
صيدلية الاس,Alas pharmacy,,,,,Erbil,Erbil,Healthcare,healthcare,36.217861,44.0276088,,,partial,false,osm
Helena Hospital,,,,,,Erbil,Erbil,Healthcare,healthcare,36.2170654,44.0348218,,,partial,false,osm
کۆنترۆل کوالیتی دەرمان,Kurdistan Medical Control Agency,,,,,Erbil,Erbil,Healthcare,healthcare,36.2183095,44.0362169,,,partial,false,osm
دەرمانخانەی رەوشت,Rawsht Pharmacy,,,,,Erbil,Erbil,Healthcare,healthcare,36.2160908,44.0355417,,,partial,false,osm
مركز روناهي العقم و اطفال الانابيب,Runahi IVF Center,,,,40 Meter Road,Erbil,Erbil,Healthcare,healthcare,36.2138814,44.0355968,,,partial,false,osm
چاودێری چڕی منداڵان,NICU-PICU,,,,,Erbil,Erbil,Healthcare,healthcare,36.2180914,44.03541,,,partial,false,osm
مجمع طبي أمریکي,AMC (American medical Compound),,,,,Erbil,Erbil,Healthcare,healthcare,36.2123751,44.0355583,,,partial,false,osm
مجمع نورجان الطبي,Noorjan Medical Compound,,,,,Erbil,Erbil,Healthcare,healthcare,36.2130334,44.0355091,,,partial,false,osm
med24,,,,,,Erbil,Erbil,Healthcare,healthcare,36.2154149,44.0353007,,,partial,false,osm
مركز الشرق التخصصي للعيون,Al-Sharq  Hospital,,,,,Erbil,Erbil,Healthcare,healthcare,36.2135134,44.0356601,,,partial,false,osm
مجمع نوال الطبي دكتور جلال مسه,Nawal Medical Complex,,,,قضاء أربيل,أربيل,Erbil,Healthcare,healthcare,36.2250012,43.99202,,,partial,false,osm
بنكه ى ته ندروستى كورانى عنكاوا,Kurani Ankawa Health Center,,,,,Erbil,Erbil,Healthcare,healthcare,36.2196166,43.9929792,,,partial,false,osm
مركز كوزموديرم للطب التجميلي,,,,,قضاء أربيل,أربيل,Erbil,Healthcare,healthcare,36.2227823,43.9975759,,,partial,false,osm
گۆمەڵگەی پزیشکیی نەوال,,,,,"Ainkawa, قضاء أربيل",أربيل,Erbil,Healthcare,healthcare,36.2259021,43.9914285,,,partial,false,osm
دەرمانخانەی نورجان,norjan pharmacy,,,,"شەقامی کانی, قضاء أربيل",أربيل,Erbil,Healthcare,healthcare,36.2262085,43.9920518,,,partial,false,osm
نۆرینگەی پزیشکیی نورجان,norjan clinic,,,,قضاء أربيل,أربيل,Erbil,Healthcare,healthcare,36.2262142,43.9920222,,,partial,false,osm
هيلين ماركيت,Hba pharmacy,,,,قضاء أربيل,أربيل,Erbil,Healthcare,healthcare,36.2298281,43.9922868,,,partial,false,osm
نبض ائمل,,,,,قضاء أربيل,أربيل,Erbil,Healthcare,healthcare,36.2314845,43.987885,,,partial,false,osm
دەرمانخانەی ڕخێد,rxed pharmacy,,,,قضاء أربيل,أربيل,Erbil,Healthcare,healthcare,36.2285164,43.9913601,,,partial,false,osm
دەرمانخانەی نەخۆشخانەی مەریەمانە,Maryamana hospital pharmacy,,,,قضاء أربيل,أربيل,Erbil,Healthcare,healthcare,36.2273383,43.9916036,,,partial,false,osm
santa maria,Santa Maria,,,,قضاء أربيل,أربيل,Erbil,Healthcare,healthcare,36.2266932,43.9910581,,,partial,false,osm
دكتورة رضاب سالم داود,دكتورة رضاب سالم داود,,,,قضاء أربيل,أربيل,Erbil,Healthcare,healthcare,36.2273617,43.9990703,,,partial,false,osm
دكتور مسار اسحق ايشو,دكتور مسار اسحق ايشو,,,salam.isaaq@yahoo.com,"two side shlama, قضاء أربيل",أربيل,Erbil,Healthcare,healthcare,36.2273373,43.999106,,,partial,false,osm
سيدة النجاة للعيادات الطبية التخصصية,سيدة النجاة للعيادات الطبية التخصصية,,,,"Shlama, قضاء أربيل",أربيل,Erbil,Healthcare,healthcare,36.2272457,43.9990831,,,partial,false,osm
دكتور وسام امجد بويا,دكتور وسام امجد بويا,,,,قضاء أربيل,أربيل,Erbil,Healthcare,healthcare,36.2273351,43.999083,,,partial,false,osm
دكتور رياض حازم الزكر,دكتور رياض حازم الزكر,,,,قضاء أربيل,أربيل,Erbil,Healthcare,healthcare,36.2273251,43.999083,,,partial,false,osm
د.نەرمین تەها,Dr.narmin taha,,,,,Erbil,Erbil,Healthcare,healthcare,36.2185249,44.0069423,,,partial,false,osm
نەخۆشخانەی بەلسەم,Balsam Hospital,,,,"220-67, قضاء أربيل",أربيل,Erbil,Healthcare,healthcare,36.2200161,44.0082805,,,partial,false,osm
مستشفى نوروز الأهلي,Nawroz Private Hospital,,,,100 M Road,Erbil,Erbil,Healthcare,healthcare,36.2277706,44.0121971,,,partial,false,osm
مستوصف عنكاوا,Ankawa clinic,,,,"Safeen Street, قضاء أربيل",أربيل,Erbil,Healthcare,healthcare,36.2369448,43.9891379,,,partial,false,osm
Lausanne Medical and Beauty Center,,,,,"Shlama Street, قضاء أربيل",أربيل,Erbil,Healthcare,healthcare,36.233369,43.9973116,,,partial,false,osm
نوفل نعمان,,,,,قضاء أربيل,أربيل,Erbil,Healthcare,healthcare,36.2343515,43.997146,,,partial,false,osm
معرض الساعة,Al-saa Shoping,,,,قضاء أربيل,أربيل,Erbil,Healthcare,healthcare,36.2385093,43.9904021,,,partial,false,osm
بیلادونا,beladona,,,,قضاء أربيل,أربيل,Erbil,Healthcare,healthcare,36.2386858,43.9958259,,,partial,false,osm
صيدلية بوابة أكد,Akad gate pharmacy,,,,قضاء أربيل,أربيل,Erbil,Healthcare,healthcare,36.2326198,44.0019389,,,partial,false,osm
طبابة مارت شموني,,,,,"Bahrka - Ainkawa Road, قضاء أربيل",أربيل,Erbil,Healthcare,healthcare,36.2350036,44.0105612,,,partial,false,osm
shady,,,,,,Erbil,Erbil,Healthcare,healthcare,36.2191454,44.0244916,,,partial,false,osm
سادۆڵ,Sadol,,,,Gulan Road,Erbil,Erbil,Healthcare,healthcare,36.2200076,44.030148,,,partial,false,osm
Raparin Teaching Hospital For Children,Raparin Hospital-Hawler,,,,,Erbil,Erbil,Healthcare,healthcare,36.2188658,44.0355138,,,partial,false,osm
ڕاوێژکاری نەخۆشخانەی ڕاپەڕین,Raparin clinic outpatient,,,,,Erbil,Erbil,Healthcare,healthcare,36.218548,44.0341784,,,partial,false,osm
خدج,ncu,,,,,Erbil,Erbil,Healthcare,healthcare,36.2190408,44.0351525,,,partial,false,osm
مختبر الينا الطبي,Alina Clinical Laboratory,,,,"C3, طريق بحركه القديم, قضاء أربيل",أربيل,Erbil,Healthcare,healthcare,36.2607611,43.9928992,,,partial,false,osm
atconz,,,,,,Erbil,Erbil,Healthcare,healthcare,36.246614,44.0212875,,,partial,false,osm
العيادة الطبية,Primary health Center,,,,,Erbil,Erbil,Healthcare,healthcare,36.2727677,43.9887566,,,partial,false,osm
صيدلية كردجوتيار,Pharmacy,,,,,Erbil,Erbil,Healthcare,healthcare,36.2716705,43.9929982,,,partial,false,osm
معاون طبي,Primary health center,,,,,Erbil,Erbil,Healthcare,healthcare,36.2714152,43.993048,,,partial,false,osm
عیادة د.كاروان,,,,,,أربيل,Erbil,Healthcare,healthcare,36.2808619,44.0169075,,,partial,false,osm
نۆڕینگەی دکتۆر ئەمین,,,,,,Erbil,Erbil,Healthcare,healthcare,36.2801205,44.0207678,,,partial,false,osm
نەخۆشخانەی خواکوڕک,Khwakurk,,,,"جووت سایدی دارەتوو, شارۆچکەی ناوەندیی هەولێر",هەولێر,Erbil,Healthcare,healthcare,36.1267267,44.0430525,,,partial,false,osm
نۆرینگەی هیوا,,,,,شارۆچکەی ناوەندیی هەولێر,هەولێر,Erbil,Healthcare,healthcare,36.1246413,44.0452838,,,partial,false,osm
دەرمانخانەی گوڵڕۆژ,Gulrozh Pharmacy,,,,"جووت سایدی دارەتوو, شارۆچکەی ناوەندیی هەولێر",هەولێر,Erbil,Healthcare,healthcare,36.1262969,44.04486,https://www.facebook.com/rozh.gull13/,,partial,false,osm
دەرمانخانەی ئۆیار,,,,,"جووت سایدی دارەتوو, شارۆچکەی ناوەندیی هەولێر",هەولێر,Erbil,Healthcare,healthcare,36.1265998,44.0416928,,,partial,false,osm
کۆمەڵگای پزیشکی ئاڤژەن,,,,,"جووت سایدی دارەتوو, شارۆچکەی ناوەندیی هەولێر",هەولێر,Erbil,Healthcare,healthcare,36.1261472,44.0463164,,,partial,false,osm
دەرمانخانەی ئاڤژەن,,,,,"جووت سایدی دارەتوو, شارۆچکەی ناوەندیی هەولێر",هەولێر,Erbil,Healthcare,healthcare,36.1261139,44.0462691,,,partial,false,osm
دەرمانخانەی بۆنی گوڵ,,,,,"جووت سایدی دارەتوو, شارۆچکەی ناوەندیی هەولێر",هەولێر,Erbil,Healthcare,healthcare,36.1251019,44.0511931,,,partial,false,osm
دەرمانخانەی نمەی ئاسوودەیی,Nmey asûdeyî pharmacy,,,,شارۆچکەی ناوەندیی هەولێر,هەولێر,Erbil,Healthcare,healthcare,36.1232547,44.0511394,,,partial,false,osm
گوڵ ڕوو,,,,,شارۆچکەی ناوەندیی هەولێر,هەولێر,Erbil,Healthcare,healthcare,36.1255899,44.0502444,,,partial,false,osm
دەرمانخانەی ئاسمانی دارەتوو,asmane daratw,,,,"جووت سایدی دارەتوو, شارۆچکەی ناوەندیی هەولێر",هەولێر,Erbil,Healthcare,healthcare,36.126312,44.0468035,,,partial,false,osm
دەرمانخانەی پەریلە,parilla,,,,"جووت سایدی دارەتوو, شارۆچکەی ناوەندیی هەولێر",هەولێر,Erbil,Healthcare,healthcare,36.1254366,44.0499443,,,partial,false,osm
عیادەی پزیشکی حسن,,,,,شارۆچکەی ناوەندیی هەولێر,هەولێر,Erbil,Healthcare,healthcare,36.1190725,44.0582009,,,partial,false,osm
بنکەی تەندروستی دارەتوو,health daratu,,,,شارۆچکەی ناوەندیی هەولێر,هەولێر,Erbil,Healthcare,healthcare,36.118341,44.0652298,,,partial,false,osm
عیادەی پزیشکی صابر,عیادەی پزیشکی صابر,,,,,هەولێر,Erbil,Healthcare,healthcare,36.1172273,44.062324,,,partial,false,osm
نۆڕینگەی شڤان,norengay shvan,,,,شارۆچکەی ناوەندیی هەولێر,هەولێر,Erbil,Healthcare,healthcare,36.1183057,44.0657535,,,partial,false,osm
عیادەی پزیشکی عەبدوڵڵا,,,,,شارۆچکەی ناوەندیی هەولێر,هەولێر,Erbil,Healthcare,healthcare,36.1214984,44.0583477,,,partial,false,osm
تاقیگەی دلاوەر,,,,,شارۆچکەی ناوەندیی هەولێر,هەولێر,Erbil,Healthcare,healthcare,36.1219462,44.0582247,,,partial,false,osm
کۆمەڵگای پزیشکی,,,,,,هەولێر,Erbil,Healthcare,healthcare,36.1323616,44.0661028,,,partial,false,osm
نۆرينگەي پيشابير,Haji Jabar Ahmed Mosque,,,,"شەقامی کؤرنیش, قضاء أربيل",أربيل,Erbil,Healthcare,healthcare,36.138956,44.0621711,,,partial,false,osm
بنکەی تەندرووستی زەیتوون,Zaytun health center,,,,,هەولێر,Erbil,Healthcare,healthcare,36.1356264,44.0608636,,,partial,false,osm
دەرمانخانەی خێرخوازی,xerxwaze pharmacy,,,,شارۆچکەی ناوەندیی هەولێر,هەولێر,Erbil,Healthcare,healthcare,36.1182021,44.0687758,,,partial,false,osm
صيدلية شيله ی گوڵ,Pharmacy Shelay Gull,,,,,Erbil,Erbil,Healthcare,healthcare,36.1495887,44.0569716,,,partial,false,osm
صيدلية الزيتون,Zaytun Pharmacy,,,,,Erbil,Erbil,Healthcare,healthcare,36.1466489,44.0619666,,,partial,false,osm
دەرمانخانەی شەنوا,shanwa,,,,قضاء أربيل,أربيل,Erbil,Healthcare,healthcare,36.154117,44.0445285,,,partial,false,osm
مستشفى عيون,,,,,شارەوانی ٣٤٠,Erbil,Erbil,Healthcare,healthcare,36.1549819,44.0476025,,,partial,false,osm
دەرمانخانەی ترپەی دڵ,,,,,قضاء أربيل,أربيل,Erbil,Healthcare,healthcare,36.1632803,44.0416839,,,partial,false,osm
نۆڕینگەی پزیشکی,,,,,"شەقامی خانزاد, قضاء أربيل",أربيل,Erbil,Healthcare,healthcare,36.1600433,44.0407337,,,partial,false,osm
نۆرینگەی عەبدوڵڵا,,,,,قضاء أربيل,أربيل,Erbil,Healthcare,healthcare,36.1611691,44.0617971,,,partial,false,osm
صيدلية باغى زيتون,,,,,,هەولێر,Erbil,Healthcare,healthcare,36.1399936,44.0729887,,,partial,false,osm
دەرمانخانەی گوڵی فەرمانبەران,gulle farmanbaran,,,,قضاء أربيل,أربيل,Erbil,Healthcare,healthcare,36.1607753,44.0688714,,,partial,false,osm
دەرمانخانەی سیمای بەهەشت,simay bahasht,,,,,Erbil,Erbil,Healthcare,healthcare,36.1617232,44.0704792,,,partial,false,osm
نۆرینگەی پەرژین,,,,,قضاء أربيل,أربيل,Erbil,Healthcare,healthcare,36.1611691,44.0740285,,,partial,false,osm
بنکەی تەندروستی ئالتون ستی,Altun City Health Center,,,,,هەولێر,Erbil,Healthcare,healthcare,36.1541949,44.0917888,,,partial,false,osm
نۆرینگەی سەردار,,,,,قضاء أربيل,أربيل,Erbil,Healthcare,healthcare,36.1614894,44.0796838,,,partial,false,osm
دكتور محمد ياسين احمد,Dr. Mohammed Yassen Ahmed,,,,,Erbil,Erbil,Healthcare,healthcare,36.1789263,44.047063,,,partial,false,osm
دەرمانخانەی توا,Twa pharmacy,,,,"شەقامی کۆنی بنەسراوە, قضاء أربيل",أربيل,Erbil,Healthcare,healthcare,36.1660829,44.0624087,,,partial,false,osm
ئەژین,,,,,havalan,Erbil,Erbil,Healthcare,healthcare,36.1828408,44.0463951,,,partial,false,osm
لاڤندەر,lavnder,,,,havalan,Erbil,Erbil,Healthcare,healthcare,36.182787,44.0465722,,,partial,false,osm
دەرمانخانەی ڕاپەڕین,norengay raparen,,,,"شەقامی فایەق بازرگان, قضاء أربيل",أربيل,Erbil,Healthcare,healthcare,36.1792153,44.0464513,,,partial,false,osm
شکۆ,shko,,,,,Erbil,Erbil,Healthcare,healthcare,36.1823037,44.0462621,,,partial,false,osm
معاون طبي مظفر نوري,,,,,hewallaa str,Erbil,Erbil,Healthcare,healthcare,36.1843397,44.0520079,,,partial,false,osm
نۆرینگە,,,,,"شەقامی ئایشە گوڵ, قضاء أربيل",أربيل,Erbil,Healthcare,healthcare,36.1826231,44.0487751,,,partial,false,osm
ئاهناز,,,,,"شەقامی ئایشە گوڵ, قضاء أربيل",أربيل,Erbil,Healthcare,healthcare,36.1822888,44.0530038,,,partial,false,osm
نۆرینگەی خەدیجە,,,,,"332-103, قضاء أربيل",أربيل,Erbil,Healthcare,healthcare,36.1851027,44.0524764,,,partial,false,osm
د. زیاد شەفیق ڕاوی,,,,,"شەقامی پێشەوا قازی, قضاء أربيل",أربيل,Erbil,Healthcare,healthcare,36.1890611,44.0412071,,,partial,false,osm
کۆمەڵگای پزیشکی پرایم مێدیکا,,,,,"شەقامی پێشەوا قازی, قضاء أربيل",أربيل,Erbil,Healthcare,healthcare,36.1893069,44.0413032,,,partial,false,osm
کۆمەڵگای پزیشکی مێدیکا ١,Medica Consultancy Policlinic,,,,"شەقامی پێشەوا قازی, قضاء أربيل",أربيل,Erbil,Healthcare,healthcare,36.1887127,44.0411743,,,partial,false,osm
د. عەبدولوەهاب موختار,,,,,"شەقامی پێشەوا قازی, قضاء أربيل",أربيل,Erbil,Healthcare,healthcare,36.1894787,44.0412728,,,partial,false,osm
دەرمانخانەی هاونیشتیمان,,,,,قضاء أربيل,أربيل,Erbil,Healthcare,healthcare,36.1880235,44.0408708,,,partial,false,osm
صيدلية لاولاس,,,,,قضاء أربيل,أربيل,Erbil,Healthcare,healthcare,36.187887,44.0408384,,,partial,false,osm
NORIN PHARMACY,,,,,قضاء أربيل,أربيل,Erbil,Healthcare,healthcare,36.1893251,44.0411909,,,partial,false,osm
دەرمانخانەی ئەنزیم,,,,,"شەقامی پێشەوا قازی, قضاء أربيل",أربيل,Erbil,Healthcare,healthcare,36.1907871,44.0416581,,,partial,false,osm
Pharmacie Principale,,,,,قضاء أربيل,أربيل,Erbil,Healthcare,healthcare,36.1912926,44.0418189,,,partial,false,osm
نۆرینگەی پزیشکی دکتۆ عەبدولغەفور,,,,,قضاء أربيل,أربيل,Erbil,Healthcare,healthcare,36.1892088,44.0448306,,,partial,false,osm
نۆرینگەی پزیشکی سەنگەر,noringay sangar,,,,"شەقامی پێشەوا قازی, قضاء أربيل",أربيل,Erbil,Healthcare,healthcare,36.1919611,44.042038,,,partial,false,osm
نۆرینگەی پزیشکی دکتۆر دەشتی,,,,,"شەقامی پێشەوا قازی, قضاء أربيل",أربيل,Erbil,Healthcare,healthcare,36.1895787,44.0412585,,,partial,false,osm
کۆمەڵگای هوناف,,,,,,Erbil,Erbil,Healthcare,healthcare,36.1916972,44.0419952,,,partial,false,osm
الدكتورة الهام خطاب,,,,,,Erbil,Erbil,Healthcare,healthcare,36.1884166,44.0408418,,,partial,false,osm
الدكتورة الهام خطاب,,,,,,Erbil,Erbil,Healthcare,healthcare,36.188354,44.0407924,,,partial,false,osm
د. ڕۆنی دەنحا زرۆ,Dr. Roni Danha Zro,,,,,Erbil,Erbil,Healthcare,healthcare,36.1916337,44.0420381,,,partial,false,osm
گیادەرمانی دەوەن نوێ,,,,,,Erbil,Erbil,Healthcare,healthcare,36.1863085,44.0474174,,,partial,false,osm
صيدلية ريباز,,,,,قضاء أربيل,أربيل,Erbil,Healthcare,healthcare,36.1894078,44.0480782,,,partial,false,osm
صيدلية هيدوانة,,,,,,Erbil,Erbil,Healthcare,healthcare,36.1859423,44.0472843,,,partial,false,osm
گرین لیف,green leaf,,,,,Erbil,Erbil,Healthcare,healthcare,36.1876638,44.0477956,,,partial,false,osm
دەرمانخانەی سۆما,Soma pharmacy,,,,"شەقامی عەبدولخالق مەعروف, قضاء أربيل",أربيل,Erbil,Healthcare,healthcare,36.1817111,44.0595735,,,partial,false,osm
حنان,Hanan,,,,"شەقامی عەبدولخالق مەعروف, قضاء أربيل",أربيل,Erbil,Healthcare,healthcare,36.1812072,44.0594265,,,partial,false,osm
نۆرینگەی هونەر,norengay hunar,,,,"333-61, قضاء أربيل",أربيل,Erbil,Healthcare,healthcare,36.1812983,44.0540563,,,partial,false,osm
نۆرینگەی خوناو,,,,,"شەقامی ئایشە گوڵ, قضاء أربيل",أربيل,Erbil,Healthcare,healthcare,36.181748,44.054846,,,partial,false,osm
دەرمانخانەی دوو گوڵ,Dw Gull pharmacy,,,,جووت سایدی منارە,Erbil,Erbil,Healthcare,healthcare,36.1831052,44.0599697,,,partial,false,osm
دەرمانخانەی شڤان,,,,,"332-103, قضاء أربيل",أربيل,Erbil,Healthcare,healthcare,36.189536,44.0535061,,,partial,false,osm
دەرمانخانەی وەیناز,Waynaz pharmacy,,,,"شەقامی عەبدولخالق مەعروف, قضاء أربيل",أربيل,Erbil,Healthcare,healthcare,36.1863078,44.0607203,,,partial,false,osm
دەرمانخانەی فرۆی کوردستان,froy kurdistan,,,,"شەقامی عەبدولخالق مەعروف, قضاء أربيل",أربيل,Erbil,Healthcare,healthcare,36.1868722,44.0608357,,,partial,false,osm
دەرمانخانەی ڕۆزتۆف,rostof,,,,"شەقامی عەبدولخالق مەعروف, قضاء أربيل",أربيل,Erbil,Healthcare,healthcare,36.1913082,44.0617361,,,partial,false,osm
نۆرینگەی پزیشکیی,,,,,قضاء أربيل,أربيل,Erbil,Healthcare,healthcare,36.1715907,44.0706418,,,partial,false,osm
دەرمانخانەی گەشە,Lap Gasha,,,,,Erbil,Erbil,Healthcare,healthcare,36.1758965,44.0791282,,,partial,false,osm
عيادة گەشە الطبية,Gasha Medical Clinic,,,,,Erbil,Erbil,Healthcare,healthcare,36.1754382,44.0790889,,,partial,false,osm
دەرمانخانە,,,,,,Erbil,Erbil,Healthcare,healthcare,36.1770597,44.0749793,,,partial,false,osm
مركز صحي حصارۆك,Hasarok Health Center,,,,شەقامی گوندی حصارۆک,Erbil,Erbil,Healthcare,healthcare,36.1856368,44.0723524,,,partial,false,osm
دەرمانخانەی بەستەر,,,,,قضاء أربيل,أربيل,Erbil,Healthcare,healthcare,36.1912322,44.0689435,,,partial,false,osm
صیدلیە نیشان,,,,,,Erbil,Erbil,Healthcare,healthcare,36.1845524,44.0809245,,,partial,false,osm
صیدلیە چەلەنگ,h.akoy,,,,,Erbil,Erbil,Healthcare,healthcare,36.1554607,44.0991562,,,partial,false,osm
blbas,,,,,بازاڕی چوار هەزاری,Erbil,Erbil,Healthcare,healthcare,36.1575205,44.1033764,,,partial,false,osm
عيادةی دكتورة فدوة,Dr.fdwa,,,,"22, شەقامی سەرەکی بنەسلاوە بەرامبەر شوقەکان",هەولێر,Erbil,Healthcare,healthcare,36.1552903,44.0998804,,,partial,false,osm
Dr. Basoz Babani Dental Clinic,,,,,شەقامی بنەسراوە,هەولێر,Erbil,Healthcare,healthcare,36.1553845,44.099432,,,partial,false,osm
دەرمانخانەی سەروەران,Sarwaran Pharmacy,,,,,Erbil,Erbil,Healthcare,healthcare,36.1900536,44.1188297,,,partial,false,osm
نەخۆشخانەی نەدوەی خێرخوازی,Nadwa Charity Hospital,,,,"شەقامی هۆلی زەرد, قضاء أربيل",أربيل,Erbil,Healthcare,healthcare,36.197428,44.0405645,,,partial,false,osm
دەرمانخانەی نەدوەی خێرخوازی,,,,,"شەقامی هۆلی زەرد, قضاء أربيل",أربيل,Erbil,Healthcare,healthcare,36.1974717,44.0406149,,,partial,false,osm
مستشفى ژين الاهلي,,,,,,Erbil,Erbil,Healthcare,healthcare,36.194527,44.0446344,,,partial,false,osm
نەخۆشخانەی ڕەسولی تایبەت,Rasul Private Hospital,,,,قضاء أربيل,أربيل,Erbil,Healthcare,healthcare,36.1943717,44.0526174,,,partial,false,osm
دەرمانخانەی ناو گوڵان,naw gullan,,,,"شەقامی عوسمان مام یەحیا, قضاء أربيل",أربيل,Erbil,Healthcare,healthcare,36.1985235,44.0505711,,,partial,false,osm
دەرمانخانەی شەونم,,,,,"شەقامی ساکینە سلێمان, قضاء أربيل",أربيل,Erbil,Healthcare,healthcare,36.192982,44.0489707,,,partial,false,osm
نۆرینگەی پزیشکی د. وەلید هیشام,,,,,"شەقامی برایەتی, قضاء أربيل",أربيل,Erbil,Healthcare,healthcare,36.2049873,44.0419993,,,partial,false,osm
دەرمانخانەی نەوادار,,,,,,Erbil,Erbil,Healthcare,healthcare,36.2032521,44.0448301,,,partial,false,osm
دەرمانخانەی بەشدار,,,,,"327-60, قضاء أربيل",أربيل,Erbil,Healthcare,healthcare,36.2002834,44.0454072,,,partial,false,osm
دەرمانخانەی وتار,wtar pharmacy,,,,"327-32, قضاء أربيل",أربيل,Erbil,Healthcare,healthcare,36.2021804,44.0510848,,,partial,false,osm
دەرمانخانەی ژین,zhin,,,,"شەقامی عوسمان مام یەحیا, قضاء أربيل",أربيل,Erbil,Healthcare,healthcare,36.2001911,44.0509406,,,partial,false,osm
نۆرینگەی پزیشکی شیما,noringay shima,,,,"327-60, قضاء أربيل",أربيل,Erbil,Healthcare,healthcare,36.1999581,44.046812,,,partial,false,osm
بنکەی تەندرووستی سەروەران,Sarwaran Health Center,,,,قضاء أربيل,أربيل,Erbil,Healthcare,healthcare,36.1931208,44.060418,,,partial,false,osm
دەرمانخانەی ڕەوەند,,,,,,Erbil,Erbil,Healthcare,healthcare,36.1936882,44.0612624,,,partial,false,osm
دەرمانخانەی تا,noringay ta,,,,قضاء أربيل,أربيل,Erbil,Healthcare,healthcare,36.1993291,44.0559469,,,partial,false,osm
دەرمانخانەی هاژەی فورات,,,,,قضاء أربيل,أربيل,Erbil,Healthcare,healthcare,36.2020812,44.0621223,,,partial,false,osm
نۆرینگەی پزیشکی نەوزاد,,,,,قضاء أربيل,أربيل,Erbil,Healthcare,healthcare,36.2017104,44.0616529,,,partial,false,osm
نۆرینگەی پزیشکی موسلیح,,,,,"328-, قضاء أربيل",أربيل,Erbil,Healthcare,healthcare,36.202645,44.061603,,,partial,false,osm
بنکەی تەندرووستی بێتواتە,betwata new health center,,,,قضاء أربيل,أربيل,Erbil,Healthcare,healthcare,36.2023209,44.0745423,,,partial,false,osm
نةخوشخانةي CMC,CMC Private Hospital,,,,"شەقامی کۆیە, قضاء أربيل",أربيل,Erbil,Healthcare,healthcare,36.1993119,44.0809605,,,partial,false,osm
د. كاويس عمر زه نگه نه(پسپوری نه خوشی مندالان),,,,,"شەقامی کۆیە, قضاء أربيل",أربيل,Erbil,Healthcare,healthcare,36.1994053,44.0811868,,,partial,false,osm
صيديلیة باغی سەروەران,baghi sarwaran,,,,,Erbil,Erbil,Healthcare,healthcare,36.2109103,44.0693494,,,partial,false,osm
بنکەی تەندروستی ھەولێری نوێ,Hawleri nwė Medical Centre,,,,قضاء أربيل,أربيل,Erbil,Healthcare,healthcare,36.2148559,44.073935,,,partial,false,osm
مركز صحي كاوة,Health center kawa,,,,قضاء أربيل,أربيل,Erbil,Healthcare,healthcare,36.2221224,44.047529,,,partial,false,osm
ناوەندەی ئاوات بۆ چارەسەری تیشکیی,Awat Radiation Oncology Center,,,,قضاء أربيل,أربيل,Erbil,Healthcare,healthcare,36.2202471,44.0599685,,,partial,false,osm
Sun life International Hospital,Sun life International Hospital,,,,"شەقامی پیرمام, قضاء أربيل",أربيل,Erbil,Healthcare,healthcare,36.2352621,44.0613816,,,partial,false,osm
کۆمەڵگای پزیشکیی ئازیار,Azar medical center,,,,شارۆچکەی ناوەندیی هەولێر,هەولێر,Erbil,Healthcare,healthcare,36.1978813,44.1186114,,,partial,false,osm
دەرمانخانەی گەش بوونەوە,,,,,,هەولێر,Erbil,Healthcare,healthcare,36.2497107,44.0852561,,,partial,false,osm
صیدلیە,h.akoy,,,,,Erbil,Erbil,Healthcare,healthcare,36.2463098,44.0823017,,,partial,false,osm
بنکەی تەندروستی سەرکارێز,,,,,,أربيل,Erbil,Healthcare,healthcare,36.1151247,43.966983,,,partial,false,osm
نەخۆشخانەی فریاکەوتنی رۆژئاوای هەولێر,West Erbil emergency hospital,,,,"شەقامی پێشەوا قازی, قضاء أربيل",أربيل,Erbil,Healthcare,healthcare,36.1605877,43.9686533,,,partial,false,osm
نەخۆشخانەی نێودەوڵەتی ھەولێر,Erbil International Hospital,,,,"شەقامی پێشەوا قازی, قضاء أربيل",أربيل,Erbil,Healthcare,healthcare,36.1577358,43.9823553,,,partial,false,osm
King Smile By Yousifka,,,,,"50, قضاء أربيل",أربيل,Erbil,Healthcare,healthcare,36.1867921,43.9668301,,,partial,false,osm
بنکەی تەندرووستی زانکۆ,,,https://www.anjamakam.com/,,"شەقامی کەرکووک, قضاء أربيل",أربيل,Erbil,Healthcare,healthcare,36.1516687,44.0193344,,,partial,false,osm
نەخۆشخانەی تایبەتی زانکۆ,Zanko Private hospital,,,,"شەقامی نەمامگە, قضاء أربيل",أربيل,Erbil,Healthcare,healthcare,36.1527175,44.039765,,,partial,false,osm
NELA pharmacy,,,,,"شەقامی نەمامگە, قضاء أربيل",أربيل,Erbil,Healthcare,healthcare,36.1570496,44.0370932,,,partial,false,osm
کۆمەڵگای پزیشکی میهرەبانی,MIHRABANI Clinic,,,,"شەقامی نەمامگە, قضاء أربيل",أربيل,Erbil,Healthcare,healthcare,36.1565186,44.0375451,,,partial,false,osm
نەخۆشخانەی هەوار,Howar Private Hospital,,,,قضاء أربيل,أربيل,Erbil,Healthcare,healthcare,36.1591746,44.0291574,,,partial,false,osm
Tablet Pharmacy,,,,,"ئەلبان, قضاء أربيل",أربيل,Erbil,Healthcare,healthcare,36.1708855,43.9928329,,,partial,false,osm
بنکەی تەندرووستی لەیلا قاسم,Layla Qasim Health Center,,,,"شەقامی ڕووناکی, قضاء أربيل",أربيل,Erbil,Healthcare,healthcare,36.171113,44.0222619,,,partial,false,osm
Dr.Nihad Beauty Clinic,,,,,"شەقامی مەلا ئەفەندی, قضاء أربيل",أربيل,Erbil,Healthcare,healthcare,36.1785513,44.0282604,,,partial,false,osm
ناوەندی پزیشکی پسپۆڕی دەم و ددانی هەولێر,,,,,قضاء أربيل,أربيل,Erbil,Healthcare,healthcare,36.1893433,44.0201066,,,partial,false,osm
نەخۆشخانەی پار,PAR hospital,,,,"شەقامی کوردستان, قضاء أربيل",أربيل,Erbil,Healthcare,healthcare,36.1828993,44.0265624,,,partial,false,osm
نەخۆشخانەی ڕزگاری,Rizgary Hospital,,,,"شەقامی پێشەوا قازی, شارۆچکەی ناوەندیی هەولێر",هەولێر,Erbil,Healthcare,healthcare,36.1907339,44.0388407,,,partial,false,osm
کۆمەڵگای سۆرانی پزیشکی,Soran Polyclinic,,,,قضاء أربيل,أربيل,Erbil,Healthcare,healthcare,36.1951294,44.0040288,,,partial,false,osm
Best Med Tower,,,,,"220-14, قضاء أربيل",أربيل,Erbil,Healthcare,healthcare,36.2185145,44.0069442,,,partial,false,osm
barium pharmacy صيدية باريوم,,,,,"شەقامی نافع یونس, قضاء أربيل",أربيل,Erbil,Healthcare,healthcare,36.1994004,44.0363258,,,partial,false,osm
Raparin Teaching Hospital For Children,,,,,,Erbil,Erbil,Healthcare,healthcare,36.2187327,44.0351355,,,partial,false,osm
Ankawa Specialized Lab,,,,,قضاء أربيل,أربيل,Erbil,Healthcare,healthcare,36.2307073,43.9881932,,,partial,false,osm
نەخۆشخانەی نەورۆز,,,,,قضاء أربيل,أربيل,Erbil,Healthcare,healthcare,36.227271,44.0125213,,,partial,false,osm
بنکەی تەندروستی دارەتوو,Health Daratu,,,,شارۆچکەی ناوەندیی هەولێر,هەولێر,Erbil,Healthcare,healthcare,36.1185889,44.0654062,,,partial,false,osm
نەخۆشخانەی چاو,Eye Hospital,,,,قضاء أربيل,أربيل,Erbil,Healthcare,healthcare,36.1546582,44.0476697,,,partial,false,osm
hedi,,,,,,Erbil,Erbil,Healthcare,healthcare,36.1616797,44.0799531,,,partial,false,osm
Dr Basoz Babani Babani Clinic,,,,,شەقامی بنەسراوە,هەولێر,Erbil,Healthcare,healthcare,36.1553013,44.0994304,,,partial,false,osm
Art Dent,,,https://www.artdent.dental/,,"238, Gulan 2",أربيل,Erbil,Healthcare,healthcare,36.1974671,44.0645306,,,partial,false,osm
Vega Studio Dental Lab,,,,Studiovega36@gmail.com,"238, Gulan 2",أربيل,Erbil,Healthcare,healthcare,36.197487,44.0643152,,,partial,false,osm
ناوەندەی ئاوات بۆ چارەسەری تیشکیی,Awat Radiation Oncology Center,,,,,Erbil,Erbil,Healthcare,healthcare,36.2197324,44.059529,,,partial,false,osm